{"SSOK": {"name": "14 Bis", "city": "LONDRINA", "state": "PR", "lat": -23.214722, "lon": -51.184444}, "SSFR": {"name": "18 do Forte Empresarial", "city": "BARUERI", "state": "SP", "lat": -23.483889, "lon": -46.856667}, "SDG4": {"name": "1° Esquadrão de Helicópteros de Emprego Geral do Oeste", "city": "LADÁRIO", "state": "MS", "lat": -19.005, "lon": -57.594167}, "SNH9": {"name": "2 Amigos", "city": "NOVA LACERDA", "state": "MT", "lat": -14.491236, "lon": -59.354072}, "SJCT": {"name": "3 Tentos CETEC", "city": "SANTA BÁRBARA DO SUL", "state": "RS", "lat": -28.386944, "lon": -53.256667}, "SS03": {"name": "3MBR", "city": "BATAYPORÃ", "state": "MS", "lat": -22.473833, "lon": -53.297781}, "SNK3": {"name": "4 Ventos", "city": "NOVA LIMA", "state": "MG", "lat": -19.974989, "lon": -43.925375}, "SS9Y": {"name": "44", "city": "INHUMAS", "state": "GO", "lat": -16.370483, "lon": -49.520717}, "SJ4G": {"name": "9º BPM", "city": "DELMIRO GOUVEIA", "state": "AL", "lat": -9.358333, "lon": -37.986389}, "SD2C": {"name": "A Tartaruga", "city": "ANGRA DOS REIS", "state": "RJ", "lat": -23.029722, "lon": -44.349167}, "SIJQ": {"name": "A2 Aviação Agrícola Ltda", "city": "ALTA FLORESTA", "state": "MT", "lat": -10.068611, "lon": -55.995278}, "SJA1": {"name": "AACA Associação Aero Comodoro de Aviação", "city": "COMODORO", "state": "MT", "lat": -13.62205, "lon": -59.818825}, "SS7W": {"name": "AAGR - Associação Aerodesportiva de Guaporé", "city": "GUAPORÉ", "state": "RS", "lat": -28.895181, "lon": -51.854533}, "SWGL": {"name": "AAGV - Associação Aerodesportiva de Getulio Vargas", "city": "GETÚLIO VARGAS", "state": "RS", "lat": -27.8625, "lon": -52.184722}, "SNDH": {"name": "ABA", "city": "BARREIRAS", "state": "BA", "lat": -12.162778, "lon": -45.033611}, "SNLI": {"name": "Abaeté", "city": "ABAETÉ", "state": "MG", "lat": -19.155833, "lon": -45.495}, "SDZD": {"name": "ABB Sorocaba", "city": "SOROCABA", "state": "SP", "lat": -23.425278, "lon": -47.361944}, "SJZX": {"name": "Abreu Rocha", "city": "PRAIA GRANDE", "state": "SP", "lat": -24.006944, "lon": -46.414722}, "SNMS": {"name": "Acácio Favacho", "city": "PRACUÚBA", "state": "AP", "lat": 1.560969, "lon": -50.770964}, "SJTA": {"name": "Academia Nacional da Polícia Rodoviária Federal", "city": "FLORIANÓPOLIS", "state": "SC", "lat": -27.455833, "lon": -48.461389}, "SNLP": {"name": "Acapulco Guarujá", "city": "GUARUJÁ", "state": "SP", "lat": -23.954511, "lon": -46.201822}, "SS3O": {"name": "Acassu Ecofazenda", "city": "ACARÁ", "state": "PA", "lat": -1.594525, "lon": -48.302775}, "SN4Y": {"name": "Acelen", "city": "SÃO FRANCISCO DO CONDE", "state": "BA", "lat": -12.71, "lon": -38.558333}, "SDAC": {"name": "Aché", "city": "GUARULHOS", "state": "SP", "lat": -23.474722, "lon": -46.522222}, "SDGG": {"name": "Aché Faria Lima", "city": "SÃO PAULO", "state": "SP", "lat": -23.560833, "lon": -46.694167}, "SI6X": {"name": "ACHÉ Pernambuco", "city": "CABO DE SANTO AGOSTINHO", "state": "PE", "lat": -8.275786, "lon": -34.9967}, "SN6C": {"name": "ACR/NBF MINERAÇÃO SA", "city": "ARIQUEMES", "state": "RO", "lat": -9.785, "lon": -63.518333}, "SSVR": {"name": "Adão Veríssimo", "city": "ITINGA DO MARANHÃO", "state": "MA", "lat": -4.376389, "lon": -47.438056}, "SDGA": {"name": "Adecoagro", "city": "ANGÉLICA", "state": "MS", "lat": -22.038056, "lon": -53.846389}, "SIOR": {"name": "Adhemar Ribeiro", "city": "SANTA RITA DO PASSA QUATRO", "state": "SP", "lat": -21.641944, "lon": -47.47}, "SD50": {"name": "Adm. Porto de Paranaguá", "city": "PARANAGUÁ", "state": "PR", "lat": -25.506419, "lon": -48.514678}, "SSXN": {"name": "Aéreo Amazônia", "city": "ALTAMIRA", "state": "PA", "lat": -8.298333, "lon": -55.114722}, "SIKE": {"name": "AERIS II", "city": "CAUCAIA", "state": "CE", "lat": -3.620278, "lon": -38.848056}, "SDJ2": {"name": "Aero Agrícola Céu Azul", "city": "VILHENA", "state": "RO", "lat": -12.734722, "lon": -60.199167}, "SS8M": {"name": "Aero Agrícola Norte Sul", "city": "COLNIZA", "state": "MT", "lat": -9.427033, "lon": -59.247789}, "SJRT": {"name": "Aero Agrícola Rio Claro", "city": "SÃO JOSÉ DO RIO CLARO", "state": "MT", "lat": -13.434167, "lon": -56.731389}, "SJ6Y": {"name": "Aero Agroterra", "city": "RONDON DO PARÁ", "state": "PA", "lat": -4.712778, "lon": -48.039167}, "SS6R": {"name": "Aero Desejo", "city": "PORTO SEGURO", "state": "BA", "lat": -16.501336, "lon": -39.099983}, "SN7H": {"name": "Aero Heck", "city": "ALTAMIRA", "state": "PA", "lat": -3.158056, "lon": -52.166111}, "SJ4J": {"name": "Aero Helinorte", "city": "SÃO JOÃO DO ARAGUAIA", "state": "PA", "lat": -5.447778, "lon": -48.92}, "SJ39": {"name": "Aero Jerusalém", "city": "ÁGUA BOA", "state": "MT", "lat": -14.114444, "lon": -52.191667}, "SWRQ": {"name": "Aero Park", "city": "TERESINA", "state": "PI", "lat": -5.060556, "lon": -42.674444}, "SIPJ": {"name": "Aero Parque Tupã", "city": "TUPANCIRETÃ", "state": "RS", "lat": -29.085556, "lon": -53.865556}, "SJPP": {"name": "Aero Rural", "city": "ALTA FLORESTA", "state": "MT", "lat": -9.924722, "lon": -56.008056}, "SNUE": {"name": "Aero Sepé Aviação Agrícola", "city": "SÃO SEPÉ", "state": "RS", "lat": -30.184722, "lon": -53.639722}, "SS23": {"name": "Aero Zolet", "city": "ANTÔNIO PRADO", "state": "RS", "lat": -28.859986, "lon": -51.334439}, "SWDI": {"name": "Aeroagrícola Solo", "city": "PARANAPANEMA", "state": "SP", "lat": -23.447778, "lon": -48.8675}, "SI2Y": {"name": "Aeroáguia Pulverização", "city": "AÇAILÂNDIA", "state": "MA", "lat": -4.731944, "lon": -47.958333}, "SDID": {"name": "Aeroata", "city": "ARAÇATUBA", "state": "SP", "lat": -21.253142, "lon": -50.533592}, "SJAK": {"name": "Aerobako", "city": "SINOP", "state": "MT", "lat": -11.917222, "lon": -55.434444}, "SJKA": {"name": "Aerocampo", "city": "CAMPO NOVO DO PARECIS", "state": "MT", "lat": -13.628056, "lon": -57.900833}, "SJAV": {"name": "Aerocéu Aviação Agrícola", "city": "CHAPADÃO DO CÉU", "state": "GO", "lat": -18.388889, "lon": -52.653333}, "SSAQ": {"name": "Aeroclube", "city": "PASSO FUNDO", "state": "RS", "lat": -28.250556, "lon": -52.516667}, "SIGQ": {"name": "Aeroclube CSN - Companhia Siderúrgica Nacional", "city": "VOLTA REDONDA", "state": "RJ", "lat": -22.499167, "lon": -44.081111}, "SNGS": {"name": "Aeroclube de Alagoas", "city": "MACEIÓ", "state": "AL", "lat": -9.586028, "lon": -35.7505}, "SSHA": {"name": "Aeroclube de Aquidauana", "city": "AQUIDAUANA", "state": "MS", "lat": -20.480833, "lon": -55.769444}, "SIBK": {"name": "Aeroclube de Bagé", "city": "BAGÉ", "state": "RS", "lat": -31.327778, "lon": -54.135833}, "SJWQ": {"name": "Aeroclube de Birigui - CMTE Munir Djabak", "city": "BIRIGUI", "state": "SP", "lat": -21.216667, "lon": -50.305833}, "SJ3R": {"name": "Aeroclube de Buritis", "city": "BURITIS", "state": "RO", "lat": -10.206944, "lon": -63.855}, "SNKB": {"name": "Aeroclube de Campina Grande", "city": "CAMPINA GRANDE", "state": "PB", "lat": -7.178333, "lon": -35.990278}, "SIXE": {"name": "Aeroclube de Eldorado do Sul", "city": "ELDORADO DO SUL", "state": "RS", "lat": -30.050289, "lon": -51.4436}, "SSAF": {"name": "Aeroclube de Foz do Iguaçu", "city": "SANTA TEREZINHA DE ITAIPU", "state": "PR", "lat": -25.369722, "lon": -54.470556}, "SSOW": {"name": "Aeroclube de Frederico Westphalen", "city": "FREDERICO WESTPHALEN", "state": "RS", "lat": -27.3475, "lon": -53.403333}, "SDH4": {"name": "Aeroclube de Itapeva", "city": "ITAPEVA", "state": "SP", "lat": -23.941111, "lon": -48.883056}, "SDIO": {"name": "Aeroclube de Itápolis", "city": "ITÁPOLIS", "state": "SP", "lat": -21.599722, "lon": -48.832778}, "SJ2Y": {"name": "Aeroclube de Lucélia - Cmte João Possibom", "city": "LUCÉLIA", "state": "SP", "lat": -21.748611, "lon": -51.017222}, "SWRO": {"name": "AEROCLUBE DE RONDÔNIA", "city": "PORTO VELHO", "state": "RO", "lat": -8.794167, "lon": -63.8575}, "SSKT": {"name": "Aeroclube de Santa Catarina", "city": "SÃO JOSÉ", "state": "SC", "lat": -27.611944, "lon": -48.673333}, "SISG": {"name": "Aeroclube de Sergipe", "city": "ARACAJU", "state": "SE", "lat": -10.901389, "lon": -37.083056}, "SIPA": {"name": "Aeroclube São José do Rio Pardo", "city": "SÃO JOSÉ DO RIO PARDO", "state": "SP", "lat": -21.647222, "lon": -46.928333}, "SSYS": {"name": "Aerodinâmica Aviação Agrícola", "city": "MIRACATU", "state": "SP", "lat": -24.305572, "lon": -47.503189}, "SN8F": {"name": "Aeródromo da Roseta", "city": "LAVRAS DO SUL", "state": "RS", "lat": -30.725383, "lon": -53.980617}, "SNKI": {"name": "Aeródromo de Cachoeiro do Itapemirim", "city": "CACHOEIRO DE ITAPEMIRIM", "state": "ES", "lat": -20.835278, "lon": -41.186389}, "SW1X": {"name": "Aeródromo Fazenda Colorado", "city": "DIAMANTINO", "state": "MT", "lat": -13.943264, "lon": -57.1038}, "SJ8K": {"name": "Aeródromo Fazenda Jaraguá", "city": "AQUIDAUANA", "state": "MS", "lat": -19.531389, "lon": -55.288611}, "SJ2U": {"name": "AERODROMO FAZENDA LANDI", "city": "BARÃO DE MELGAÇO", "state": "MT", "lat": -16.978611, "lon": -55.66}, "SI4N": {"name": "Aeródromo Fazenda Milano", "city": "BARREIRAS", "state": "BA", "lat": -12.302778, "lon": -45.513889}, "SSA7": {"name": "Aeródromo Fazenda Sete", "city": "JABORANDI", "state": "BA", "lat": -14.134556, "lon": -45.421658}, "SW21": {"name": "AERÓDROMO MINERAÇÃO G3", "city": "NOVA LACERDA", "state": "MT", "lat": -14.480528, "lon": -59.843794}, "SBNV": {"name": "AERÓDROMO NACIONAL DE AVIAÇÃO", "city": "GOIÂNIA", "state": "GO", "lat": -16.625556, "lon": -49.349444}, "SD6V": {"name": "Aeródromo Privado Fazenda Maringá III", "city": "VILA BELA DA SANTÍSSIMA TRINDADE", "state": "MT", "lat": -14.446944, "lon": -60.124722}, "SSRF": {"name": "AERÓDROMO PÚBLICO CASTRO ALVES", "city": "CASTRO ALVES", "state": "BA", "lat": -12.767778, "lon": -39.444722}, "SNYA": {"name": "Aeródromo Público de Almeirim", "city": "ALMEIRIM", "state": "PA", "lat": -1.479167, "lon": -52.578056}, "SSWS": {"name": "AERÓDROMO PÚBLICO DE CAÇAPAVA DO SUL", "city": "CAÇAPAVA DO SUL", "state": "RS", "lat": -30.549722, "lon": -53.458056}, "SNUN": {"name": "AERÓDROMO PÚBLICO DE UNAÍ", "city": "UNAÍ", "state": "MG", "lat": -16.353889, "lon": -46.926944}, "SNIB": {"name": "AERÓDROMO PÚBLICO ITABERABA", "city": "ITABERABA", "state": "BA", "lat": -12.499722, "lon": -40.270278}, "SNVI": {"name": "Aeródromo público Mello Viana", "city": "TRÊS CORAÇÕES", "state": "MG", "lat": -21.789167, "lon": -45.268056}, "SW1W": {"name": "Aeródromo São Pedro", "city": "SÃO DESIDÉRIO", "state": "BA", "lat": -12.579572, "lon": -46.020794}, "SIM7": {"name": "Aeródromo Vila Gadelha", "city": "IGUATU", "state": "CE", "lat": -6.420361, "lon": -39.278192}, "SS9Q": {"name": "Aerofrásio", "city": "PARELHAS", "state": "RN", "lat": -6.704586, "lon": -36.680708}, "SDWA": {"name": "Aerogalo", "city": "ANGRA DOS REIS", "state": "RJ", "lat": -23.041667, "lon": -44.193333}, "SI6U": {"name": "Aeroguedes", "city": "SANTA TERESINHA", "state": "PB", "lat": -7.067222, "lon": -37.349167}, "SN2Y": {"name": "Aerojet", "city": "CONCEIÇÃO DO ARAGUAIA", "state": "PA", "lat": -7.943333, "lon": -49.675556}, "SILQ": {"name": "Aeroleve Aeródromo Privado", "city": "CASCAVEL", "state": "PR", "lat": -24.928889, "lon": -53.496111}, "SSC2": {"name": "Aeroleves", "city": "CANTÁ", "state": "RR", "lat": 2.762467, "lon": -60.58895}, "SIQI": {"name": "Aerolis", "city": "MOSTARDAS", "state": "RS", "lat": -30.536111, "lon": -50.467222}, "SD84": {"name": "Aeroluck", "city": "SINOP", "state": "MT", "lat": -11.844167, "lon": -55.451944}, "SS2P": {"name": "Aeropark Serra Dourada", "city": "HIDROLÂNDIA", "state": "GO", "lat": -17.015222, "lon": -49.205372}, "SJ1V": {"name": "Aeroparque Bela Vista", "city": "BELA VISTA DE GOIÁS", "state": "GO", "lat": -16.881486, "lon": -49.012547}, "SD9L": {"name": "Aeroparque Paulo CDE", "city": "REDENÇÃO", "state": "PA", "lat": -8.087222, "lon": -49.933889}, "SJGH": {"name": "Aeropel", "city": "SÃO BORJA", "state": "RS", "lat": -28.710833, "lon": -55.989444}, "SNTS": {"name": "Aeroporto Brigadeiro Firmino Ayres", "city": "PATOS", "state": "PB", "lat": -7.037778, "lon": -37.2575}, "SNWC": {"name": "Aeroporto de Camocim", "city": "CAMOCIM", "state": "CE", "lat": -2.895833, "lon": -40.858889}, "SSRG": {"name": "Aeroporto Estadual de Registro", "city": "REGISTRO", "state": "SP", "lat": -24.531667, "lon": -47.840278}, "SNLN": {"name": "Aeroporto Municipal de Linhares", "city": "LINHARES", "state": "ES", "lat": -19.355278, "lon": -40.071389}, "SWIQ": {"name": "Aeroporto Municipal José Caires de Oliveira", "city": "MINAÇU", "state": "GO", "lat": -13.549167, "lon": -48.195556}, "SBAC": {"name": "Aeroporto Regional de Canoa Quebrada Dragão do Mar", "city": "ARACATI", "state": "CE", "lat": -4.568611, "lon": -37.804722}, "SSGG": {"name": "Aeroporto Regional de Guarapuava - Tancredo Thomás de Faria", "city": "GUARAPUAVA", "state": "PR", "lat": -25.388333, "lon": -51.523611}, "SBCA": {"name": "Aeroporto Regional do Oeste - Coronel Adalberto Mendes da Silva", "city": "CASCAVEL", "state": "PR", "lat": -25.002222, "lon": -53.501944}, "SNCP": {"name": "Aeroporto Ricardo Sell Wagner - Regional da Serra Catarinense", "city": "CORREIA PINTO", "state": "SC", "lat": -27.634167, "lon": -50.358333}, "SDYS": {"name": "Aeroportobelo", "city": "PORTO BELO", "state": "SC", "lat": -27.175056, "lon": -48.631878}, "SJGS": {"name": "Aerosigma Helicentro", "city": "BOCAIÚVA DO SUL", "state": "PR", "lat": -25.256944, "lon": -49.143611}, "SS6E": {"name": "Aerosítio", "city": "EUSÉBIO", "state": "CE", "lat": -3.843333, "lon": -38.445278}, "SI72": {"name": "Aerosport Maringá", "city": "IGUARAÇU", "state": "PR", "lat": -23.188611, "lon": -51.801389}, "SD3N": {"name": "Aerounião", "city": "JAPORÃ", "state": "MS", "lat": -23.877778, "lon": -54.509722}, "SJWA": {"name": "Aerovaço", "city": "BOM JESUS DO GALHO", "state": "MG", "lat": -19.588108, "lon": -42.458731}, "SDB3": {"name": "AFG I", "city": "VALE DE SÃO DOMINGOS", "state": "MT", "lat": -14.601111, "lon": -58.902778}, "SNZF": {"name": "AFG II", "city": "TANGARÁ DA SERRA", "state": "MT", "lat": -14.405278, "lon": -58.229444}, "SNZ2": {"name": "Afife", "city": "UBERLÂNDIA", "state": "MG", "lat": -19.138008, "lon": -48.149308}, "SBCT": {"name": "Afonso Pena", "city": "CURITIBA", "state": "PR", "lat": -25.531667, "lon": -49.176111}, "SJ5R": {"name": "AG Fazenda Santa Rita", "city": "SANTA TERESINHA", "state": "BA", "lat": -12.887147, "lon": -39.608194}, "SJTQ": {"name": "AGD", "city": "CAMPOS DE JÚLIO", "state": "MT", "lat": -13.698056, "lon": -59.258333}, "SDNF": {"name": "Agéo Fazenda Capitão do Mato", "city": "NOVA LIMA", "state": "MG", "lat": -20.160556, "lon": -43.923333}, "SDLJ": {"name": "Agéo Fazenda Paraopeba", "city": "PARAOPEBA", "state": "MG", "lat": -19.258056, "lon": -44.4775}, "SWVP": {"name": "Ages", "city": "PARIPIRANGA", "state": "BA", "lat": -10.694167, "lon": -37.844722}, "SSIB": {"name": "Ages Bonfim", "city": "SENHOR DO BONFIM", "state": "BA", "lat": -10.516944, "lon": -40.146111}, "SSOR": {"name": "Ages Jacobina", "city": "JACOBINA", "state": "BA", "lat": -11.156667, "lon": -40.574722}, "SJGO": {"name": "AGO", "city": "RIO DE JANEIRO", "state": "RJ", "lat": -22.971478, "lon": -43.362731}, "SWGC": {"name": "Agricenter", "city": "PONTA PORÃ", "state": "MS", "lat": -22.623889, "lon": -55.568889}, "SWAG": {"name": "Agrícola Rio Galhão", "city": "MATEIROS", "state": "TO", "lat": -10.424722, "lon": -46.076944}, "SN3Q": {"name": "Agrícola Rizzi", "city": "LAGO DA PEDRA", "state": "MA", "lat": -4.757222, "lon": -45.351944}, "SDM8": {"name": "Agrícola Zanella", "city": "CAMPOS DE JÚLIO", "state": "MT", "lat": -14.121111, "lon": -59.216667}, "SJSS": {"name": "Agrifor", "city": "SORRISO", "state": "MT", "lat": -12.498611, "lon": -55.696111}, "SD13": {"name": "Agriter Agronegócios", "city": "BRASNORTE", "state": "MT", "lat": -13.0484, "lon": -57.791747}, "SD02": {"name": "Agro Basso", "city": "LUÍS EDUARDO MAGALHÃES", "state": "BA", "lat": -11.9375, "lon": -45.8725}, "SS2D": {"name": "Agro Bess", "city": "CAMPOS NOVOS", "state": "SC", "lat": -27.327683, "lon": -51.238967}, "SS2C": {"name": "Agro Bess", "city": "MARCELÂNDIA", "state": "MT", "lat": -11.161019, "lon": -54.268692}, "SNS7": {"name": "Agro Fazollo", "city": "TAILÂNDIA", "state": "PA", "lat": -3.195733, "lon": -48.9042}, "SIF6": {"name": "Agro Mascarello", "city": "SÃO FRANCISCO DO GUAPORÉ", "state": "RO", "lat": -12.073611, "lon": -63.661944}, "SIZU": {"name": "Agrochapada", "city": "PARANATINGA", "state": "MT", "lat": -13.435833, "lon": -54.276667}, "SD5I": {"name": "Agrodan", "city": "BELÉM DO SÃO FRANCISCO", "state": "PE", "lat": -8.667458, "lon": -39.162056}, "SDM3": {"name": "AGRODIPE", "city": "RIBEIRO GONÇALVES", "state": "PI", "lat": -7.765278, "lon": -45.371667}, "SWMZ": {"name": "Agroer Agropecuária", "city": "RONDONÓPOLIS", "state": "MT", "lat": -16.441944, "lon": -54.701944}, "SS9V": {"name": "Agroesser", "city": "DIVINÓPOLIS DO TOCANTINS", "state": "TO", "lat": -9.890994, "lon": -49.17795}, "SI58": {"name": "Agrolim", "city": "ARIQUEMES", "state": "RO", "lat": -9.929803, "lon": -63.086647}, "SJ92": {"name": "Agronova", "city": "TORIXORÉU", "state": "MT", "lat": -16.120278, "lon": -52.485278}, "SNTP": {"name": "Agropalma", "city": "TAILÂNDIA", "state": "PA", "lat": -2.529444, "lon": -48.754722}, "SDWC": {"name": "Agropastoril Bom Pastor", "city": "RONDONÓPOLIS", "state": "MT", "lat": -16.466944, "lon": -54.713889}, "SNMF": {"name": "Agropastoril Monte Alegre", "city": "MONTE BELO", "state": "MG", "lat": -21.350556, "lon": -46.250556}, "SD8A": {"name": "Agropecuária Antunes", "city": "LAGUNA CARAPÃ", "state": "MS", "lat": -22.743611, "lon": -55.233056}, "SJB9": {"name": "Agropecuária Barra do Garças", "city": "BARRA DO GARÇAS", "state": "MT", "lat": -15.395278, "lon": -52.553611}, "SS8S": {"name": "Agropecuária BIM - Fazenda Cristalina", "city": "GUIRATINGA", "state": "MT", "lat": -16.263142, "lon": -53.397239}, "SIEC": {"name": "Agropecuária Cachoeira", "city": "JARAGUARI", "state": "MS", "lat": -20.051389, "lon": -54.256667}, "SJ8F": {"name": "Agropecuária Campo Novo", "city": "PERITORÓ", "state": "MA", "lat": -4.465833, "lon": -44.173333}, "SIZS": {"name": "Agropecuária Equus", "city": "GAÚCHA DO NORTE", "state": "MT", "lat": -13.537778, "lon": -53.439167}, "SD31": {"name": "Agropecuária Fio D'Água", "city": "ÁGUA BOA", "state": "MT", "lat": -14.089192, "lon": -52.248619}, "SDL3": {"name": "Agropecuária Império", "city": "CASSILÂNDIA", "state": "MS", "lat": -19.111667, "lon": -52.077778}, "SS2X": {"name": "Agropecuária Jacaraí", "city": "ALEGRETE", "state": "RS", "lat": -29.663242, "lon": -55.948464}, "SJ8S": {"name": "Agropecuária JMW", "city": "BARRA DO CORDA", "state": "MA", "lat": -5.7175, "lon": -44.968889}, "SNXS": {"name": "Agropecuária Lazarotto", "city": "TAPURAH", "state": "MT", "lat": -12.616086, "lon": -56.623022}, "SJP6": {"name": "Agropecuária Madeirinha", "city": "COLNIZA", "state": "MT", "lat": -9.846944, "lon": -61.417778}, "SNOL": {"name": "Agropecuária Mariana", "city": "ALTA FLORESTA", "state": "MT", "lat": -9.969653, "lon": -56.216906}, "SWCI": {"name": "Agropecuária Rio da Prata", "city": "POSSE", "state": "GO", "lat": -14.225, "lon": -46.548333}, "SS38": {"name": "Agropecuária Santa Alice", "city": "IGUATEMI", "state": "MS", "lat": -23.143611, "lon": -54.507778}, "SNCO": {"name": "Agropecuária Santa Paola", "city": "TACURU", "state": "MS", "lat": -23.516944, "lon": -55.063056}, "SIVD": {"name": "Agropecuária Santa Rita", "city": "RIO VERDE DE MATO GROSSO", "state": "MS", "lat": -19.006111, "lon": -55.001389}, "SIHA": {"name": "Agropecuária São Bernardo", "city": "SÃO MIGUEL DAS MISSÕES", "state": "RS", "lat": -28.818333, "lon": -54.3825}, "SJRK": {"name": "Agropecuária São Roberto", "city": "SANTANA DO ARAGUAIA", "state": "PA", "lat": -9.232222, "lon": -50.930556}, "SD6C": {"name": "Agropecuária Thomazi", "city": "COMODORO", "state": "MT", "lat": -13.670833, "lon": -60.348611}, "SI76": {"name": "Agropecuária Varanda", "city": "CARACOL", "state": "MS", "lat": -22.046111, "lon": -57.043889}, "SDF4": {"name": "Agropecuária VR", "city": "CAMPO NOVO DO PARECIS", "state": "MT", "lat": -13.49, "lon": -57.990556}, "SJZZ": {"name": "Agropecuária Zé Reis", "city": "PALMEIRÓPOLIS", "state": "TO", "lat": -13.018861, "lon": -48.415864}, "SWZA": {"name": "Agrosan", "city": "JUARA", "state": "MT", "lat": -11.396944, "lon": -58.117222}, "SDGT": {"name": "Agrotec", "city": "MANACAPURU", "state": "AM", "lat": -3.205556, "lon": -60.541389}, "SSZH": {"name": "Agroterra Infiniti Ltda", "city": "TACURU", "state": "MS", "lat": -23.645556, "lon": -54.714167}, "SNAV": {"name": "Agrovale", "city": "JUAZEIRO", "state": "BA", "lat": -9.504167, "lon": -40.369444}, "SJ74": {"name": "AGT Agropecuária", "city": "ARAGUAÇU", "state": "TO", "lat": -12.813056, "lon": -49.569444}, "SJYE": {"name": "Água Fria", "city": "UIRAMUTÃ", "state": "RR", "lat": 4.620556, "lon": -60.277222}, "SSDA": {"name": "Água Mansa", "city": "SÃO SEBASTIÃO", "state": "SP", "lat": -23.741389, "lon": -45.404167}, "SIUA": {"name": "Águas Claras", "city": "VIAMÃO", "state": "RS", "lat": -30.119283, "lon": -50.853694}, "SJQL": {"name": "Águas Claras Aviação Agrícola", "city": "SANTA JULIANA", "state": "MG", "lat": -19.322222, "lon": -47.555}, "SWIV": {"name": "Águia Branca do Parú", "city": "ALMEIRIM", "state": "PA", "lat": -1.268056, "lon": -53.261389}, "SN24": {"name": "Águia Trancoso", "city": "PORTO SEGURO", "state": "BA", "lat": -16.574444, "lon": -39.091667}, "SDL7": {"name": "Águias de Trindade", "city": "TRINDADE", "state": "GO", "lat": -16.591667, "lon": -49.394167}, "SJYF": {"name": "Ajarani", "city": "CARACARAÍ", "state": "RR", "lat": 2.007778, "lon": -61.475833}, "SIGE": {"name": "Alberi Juliani", "city": "LAGOA DA CONFUSÃO", "state": "TO", "lat": -10.788806, "lon": -49.584942}, "SBMQ": {"name": "Alberto Alcolumbre", "city": "MACAPÁ", "state": "AP", "lat": 0.050556, "lon": -51.072222}, "SNXI": {"name": "Alberto Ramos", "city": "CORDISBURGO", "state": "MG", "lat": -19.087106, "lon": -44.32845}, "SNWA": {"name": "Albor", "city": "ARAQUARI", "state": "SC", "lat": -26.558889, "lon": -48.699722}, "SJ9E": {"name": "Albor Campo Alegre", "city": "CAMPO ALEGRE", "state": "SC", "lat": -26.1725, "lon": -49.315}, "SIWL": {"name": "Alceu Feldmann", "city": "BOMBINHAS", "state": "SC", "lat": -27.190556, "lon": -48.505556}, "SIQU": {"name": "Alcoolvale", "city": "APARECIDA DO TABOADO", "state": "MS", "lat": -20.086389, "lon": -51.309167}, "SJV6": {"name": "Aldeia", "city": "BORBA", "state": "AM", "lat": -6.466989, "lon": -59.790028}, "SJ4N": {"name": "Aldeia Ananapiare", "city": "ALMEIRIM", "state": "PA", "lat": 0.62, "lon": -54.427222}, "SDK2": {"name": "Aldeia Apalai Bona", "city": "ALMEIRIM", "state": "PA", "lat": 1.218611, "lon": -54.658611}, "SI6V": {"name": "Aldeia Boca do Marapi", "city": "ORIXIMINÁ", "state": "PA", "lat": 0.611389, "lon": -55.976667}, "SI8J": {"name": "Aldeia do Pontal", "city": "APIACÁS", "state": "MT", "lat": -8.100833, "lon": -58.284444}, "SIKV": {"name": "Aldeia do Vale", "city": "GOIÂNIA", "state": "GO", "lat": -16.608172, "lon": -49.191906}, "SDZ6": {"name": "Aldeia Kumarumã", "city": "OIAPOQUE", "state": "AP", "lat": 3.385833, "lon": -51.299444}, "SJ3F": {"name": "Aldeia Kumenê", "city": "OIAPOQUE", "state": "AP", "lat": 3.489444, "lon": -51.484722}, "SI89": {"name": "Aldeia Kuxaré", "city": "ORIXIMINÁ", "state": "PA", "lat": 1.703611, "lon": -56.068333}, "SJ6A": {"name": "Aldeia Marithepú", "city": "ORIXIMINÁ", "state": "PA", "lat": 1.091389, "lon": -56.189444}, "SDQ3": {"name": "Aldeia Matawaré", "city": "ALMEIRIM", "state": "PA", "lat": 1.951111, "lon": -55.1225}, "SI2H": {"name": "Aldeia Pedra da Onça", "city": "ÓBIDOS", "state": "PA", "lat": 1.440556, "lon": -55.658611}, "SI38": {"name": "Aldeia Pururé", "city": "ALMEIRIM", "state": "PA", "lat": 0.583333, "lon": -54.209722}, "SI7U": {"name": "Aldeia Santo Antônio", "city": "ORIXIMINÁ", "state": "PA", "lat": 0.921667, "lon": -55.760278}, "SDR6": {"name": "Aldeia Urunai", "city": "ORIXIMINÁ", "state": "PA", "lat": 1.520833, "lon": -56.082778}, "SI34": {"name": "Aldeia Xuixuimene", "city": "ALMEIRIM", "state": "PA", "lat": 0.851111, "lon": -54.650278}, "SI2D": {"name": "Aldeia Yawa", "city": "ORIXIMINÁ", "state": "PA", "lat": 1.359167, "lon": -56.13}, "SDX7": {"name": "Alegretense", "city": "ALEGRETE", "state": "RS", "lat": -29.804525, "lon": -55.785672}, "SDWQ": {"name": "Alenquer", "city": "ALENQUER", "state": "PA", "lat": -1.916944, "lon": -54.722778}, "SD86": {"name": "Alex Testoni", "city": "OURO PRETO DO OESTE", "state": "RO", "lat": -10.699722, "lon": -62.276944}, "SNWN": {"name": "Alexandre Castro e Silva", "city": "RECIFE", "state": "PE", "lat": -8.111803, "lon": -34.892719}, "SNUF": {"name": "Alfa Airport Posse", "city": "SÃO PAULO", "state": "SP", "lat": -22.572222, "lon": -46.942222}, "SDC3": {"name": "Algodoeira Santa Luzia", "city": "SAPEZAL", "state": "MT", "lat": -13.699167, "lon": -58.863611}, "SJXP": {"name": "Alice Maria Sampaio Ferreira", "city": "SÃO PAULO", "state": "SP", "lat": -23.611175, "lon": -46.694406}, "SJXJ": {"name": "Alimentos Dallas", "city": "NOVA ALVORADA DO SUL", "state": "MS", "lat": -21.454167, "lon": -54.390833}, "SIRP": {"name": "All Park Polo Empresarial", "city": "APARECIDA DE GOIÂNIA", "state": "GO", "lat": -16.825, "lon": -49.203611}, "SN48": {"name": "Almarias", "city": "JARINU", "state": "SP", "lat": -23.135278, "lon": -46.784167}, "SWUP": {"name": "Almenat", "city": "EMBU DAS ARTES", "state": "SP", "lat": -23.646389, "lon": -46.8825}, "SDQS": {"name": "Alpendre Eventos", "city": "TAUBATÉ", "state": "SP", "lat": -23.1375, "lon": -45.475}, "SDIK": {"name": "Alpha Business Empresarial", "city": "CAMPINAS", "state": "SP", "lat": -22.819444, "lon": -47.035278}, "SIPI": {"name": "Alphacentro", "city": "BARUERI", "state": "SP", "lat": -23.498056, "lon": -46.862222}, "SJAY": {"name": "Alphaville Araçagy", "city": "PAÇO DO LUMIAR", "state": "MA", "lat": -2.47, "lon": -44.173889}, "SD5P": {"name": "Alphaville Guarajuba", "city": "CAMAÇARI", "state": "BA", "lat": -12.681644, "lon": -38.104419}, "SN3D": {"name": "Alphaville Nova Esplanada 2", "city": "VOTORANTIM", "state": "SP", "lat": -23.558889, "lon": -47.473889}, "SS4J": {"name": "ALPS", "city": "TIMÓTEO", "state": "MG", "lat": -19.550156, "lon": -42.606153}, "SN8S": {"name": "Alta Vista", "city": "SÃO DESIDÉRIO", "state": "BA", "lat": -12.706411, "lon": -45.457906}, "SBHT": {"name": "ALTAMIRA", "city": "ALTAMIRA", "state": "PA", "lat": -3.250833, "lon": -52.252222}, "SDQR": {"name": "Alto da Serra", "city": "BOM JARDIM DA SERRA", "state": "SC", "lat": -28.398333, "lon": -49.576111}, "SJVT": {"name": "Alto do Rio Verde Trancoso", "city": "PORTO SEGURO", "state": "BA", "lat": -16.6, "lon": -39.096944}, "SJYG": {"name": "Alto Mucajaí", "city": "ALTO ALEGRE", "state": "RR", "lat": 2.765, "lon": -62.221389}, "SDXF": {"name": "Alto Paraíso de Goiás", "city": "ALTO PARAÍSO DE GOIÁS", "state": "GO", "lat": -14.119167, "lon": -47.530278}, "SDA5": {"name": "Alto Serenata", "city": "TIMÓTEO", "state": "MG", "lat": -19.543056, "lon": -42.640278}, "SN29": {"name": "Alves e Moura Heliport", "city": "BEZERROS", "state": "PE", "lat": -8.186667, "lon": -35.782222}, "SI7A": {"name": "Alvorada do Gurguéia", "city": "ALVORADA DO GURGUÉIA", "state": "PI", "lat": -8.441944, "lon": -43.858333}, "SI1Q": {"name": "Alvorada do Norte", "city": "ALVORADA DO NORTE", "state": "GO", "lat": -14.512475, "lon": -46.524944}, "SJ8H": {"name": "Alzir Pimentel de Aguiar", "city": "BAIXA GRANDE DO RIBEIRO", "state": "PI", "lat": -8.224167, "lon": -44.860833}, "SIC4": {"name": "Amarillo Mara Rosa", "city": "MARA ROSA", "state": "GO", "lat": -13.980278, "lon": -49.178056}, "SDYC": {"name": "Amarras", "city": "ARMAÇÃO DOS BÚZIOS", "state": "RJ", "lat": -22.774722, "lon": -41.901667}, "SD11": {"name": "Amazon Runway", "city": "MANACAPURU", "state": "AM", "lat": -3.231842, "lon": -60.486547}, "SNAZ": {"name": "Amazônia", "city": "BARUERI", "state": "SP", "lat": -23.492778, "lon": -46.849722}, "SWYF": {"name": "Ambipar", "city": "NOVA ODESSA", "state": "SP", "lat": -22.760086, "lon": -47.254078}, "SDHF": {"name": "Ambroso", "city": "SÃO JOÃO DA BOA VISTA", "state": "SP", "lat": -21.966667, "lon": -46.752222}, "SDAI": {"name": "Americana", "city": "AMERICANA", "state": "SP", "lat": -22.755278, "lon": -47.268056}, "SD00": {"name": "Americano Brito", "city": "TRAIRI", "state": "CE", "lat": -3.25825, "lon": -39.342575}, "SJ4T": {"name": "Anabela", "city": "JUSSARA", "state": "GO", "lat": -15.688247, "lon": -51.486672}, "SSEL": {"name": "ANAMI", "city": "SÃO JOSÉ DOS PINHAIS", "state": "PR", "lat": -25.592778, "lon": -49.184444}, "SWAO": {"name": "Anamoim", "city": "SÃO GABRIEL DA CACHOEIRA", "state": "AM", "lat": 1.799722, "lon": -67.383889}, "SWNS": {"name": "ANAPOLIS", "city": "ANÁPOLIS", "state": "GO", "lat": -16.3625, "lon": -48.928056}, "SSB2": {"name": "Âncora Lodge", "city": "GAÚCHA DO NORTE", "state": "MT", "lat": -13.210556, "lon": -52.959606}, "SDJS": {"name": "Andorinha", "city": "UIRAMUTÃ", "state": "RR", "lat": 4.727222, "lon": -60.241667}, "SS33": {"name": "Andrade Porto", "city": "PARACATU", "state": "MG", "lat": -17.068889, "lon": -47.145}, "SDDN": {"name": "ANDRADINA", "city": "ANDRADINA", "state": "SP", "lat": -20.925, "lon": -51.381944}, "SWBG": {"name": "ANDRÉ ANTÔNIO MAGGI", "city": "PONTES E LACERDA", "state": "MT", "lat": -15.193333, "lon": -59.385278}, "SWGK": {"name": "André Guimarães", "city": "LAURO DE FREITAS", "state": "BA", "lat": -12.875278, "lon": -38.308611}, "SJJA": {"name": "André Sampaio", "city": "PALMEIRAS", "state": "BA", "lat": -12.651944, "lon": -41.490556}, "SNON": {"name": "André Textor", "city": "MONTIVIDIU", "state": "GO", "lat": -17.445, "lon": -51.14}, "SS62": {"name": "Angelina", "city": "GILBUÉS", "state": "PI", "lat": -9.361303, "lon": -45.333108}, "SSVI": {"name": "Ângelo Ponzoni", "city": "VIDEIRA", "state": "SC", "lat": -26.999722, "lon": -51.141389}, "SDKA": {"name": "Angical", "city": "NORMANDIA", "state": "RR", "lat": 4.165, "lon": -59.835}, "SDAG": {"name": "Angra dos Reis", "city": "ANGRA DOS REIS", "state": "RJ", "lat": -22.975278, "lon": -44.307222}, "SN8T": {"name": "ANGRA II", "city": "ANGRA DOS REIS", "state": "RJ", "lat": -22.952517, "lon": -44.415147}, "SSVT": {"name": "Aníbal", "city": "RUSSAS", "state": "CE", "lat": -4.828333, "lon": -37.942778}, "SJHF": {"name": "Aníbal Azevedo Filho", "city": "MATA DE SÃO JOÃO", "state": "BA", "lat": -12.553611, "lon": -38.314722}, "SIE7": {"name": "Animalia Park", "city": "COTIA", "state": "SP", "lat": -23.621944, "lon": -46.969525}, "SDP7": {"name": "Antenor Duarte Vilela", "city": "BARRETOS", "state": "SP", "lat": -20.493889, "lon": -48.673056}, "SWIA": {"name": "Antônio Costa da Silva", "city": "JURUÁ", "state": "AM", "lat": -3.482222, "lon": -66.0575}, "SJXZ": {"name": "Antônio Covre", "city": "ITABELA", "state": "BA", "lat": -16.734167, "lon": -39.429722}, "SSFU": {"name": "Antonio Furlaneto", "city": "DOM ELISEU", "state": "PA", "lat": -4.435556, "lon": -47.598611}, "SNYW": {"name": "Antônio Guerreiro", "city": "GUIMARÃES", "state": "MA", "lat": -2.110278, "lon": -44.651667}, "SS7J": {"name": "APAAM Aerodesporto", "city": "LUCAS DO RIO VERDE", "state": "MT", "lat": -12.990178, "lon": -55.957475}, "SSPO": {"name": "APLIC Aviação agrícola II", "city": "ITAPORÃ", "state": "MS", "lat": -22.009167, "lon": -54.789722}, "SSIC": {"name": "APLIC Aviação Agrícola LTDA", "city": "DOURADOS", "state": "MS", "lat": -22.306667, "lon": -54.824444}, "SNSX": {"name": "Apodi Quixeré", "city": "QUIXERÉ", "state": "CE", "lat": -5.042222, "lon": -37.778611}, "SWOP": {"name": "APTA", "city": "SÃO BERNARDO DO CAMPO", "state": "SP", "lat": -23.768056, "lon": -46.592778}, "SWYN": {"name": "APUÍ", "city": "APUÍ", "state": "AM", "lat": -7.172222, "lon": -59.838889}, "SSZC": {"name": "Aquiraz Riviera", "city": "AQUIRAZ", "state": "CE", "lat": -3.923889, "lon": -38.328889}, "SI3J": {"name": "AR TELECOM", "city": "MOCOCA", "state": "SP", "lat": -21.513889, "lon": -47.024444}, "SN8A": {"name": "Aracati", "city": "SANTARÉM", "state": "PA", "lat": -3.023333, "lon": -55.956944}, "SBAU": {"name": "Araçatuba", "city": "ARAÇATUBA", "state": "SP", "lat": -21.144167, "lon": -50.426389}, "SNUI": {"name": "Araçuaí", "city": "ARAÇUAÍ", "state": "MG", "lat": -16.851944, "lon": -42.046111}, "SJVO": {"name": "Aragarças", "city": "ARAGARÇAS", "state": "GO", "lat": -15.899444, "lon": -52.240833}, "SJAU": {"name": "Araguacema", "city": "ARAGUACEMA", "state": "TO", "lat": -8.837778, "lon": -49.557778}, "SJO8": {"name": "Araguaia", "city": "SANTA MARIA DAS BARREIRAS", "state": "PA", "lat": -8.741111, "lon": -50.21}, "SWGN": {"name": "Araguaína", "city": "ARAGUAÍNA", "state": "TO", "lat": -7.228333, "lon": -48.240833}, "SNAG": {"name": "Araguari", "city": "ARAGUARI", "state": "MG", "lat": -18.668056, "lon": -48.190278}, "SJGU": {"name": "Araguatins", "city": "ARAGUATINS", "state": "TO", "lat": -5.685833, "lon": -48.114167}, "SJYI": {"name": "Arai", "city": "PACARAIMA", "state": "RR", "lat": 4.443889, "lon": -60.847222}, "SNAL": {"name": "Arapiraca", "city": "ARAPIRACA", "state": "AL", "lat": -9.776389, "lon": -36.630556}, "SSOG": {"name": "Arapongas", "city": "ARAPONGAS", "state": "PR", "lat": -23.352778, "lon": -51.491667}, "SJHZ": {"name": "Arara Azul", "city": "BARÃO DE MELGAÇO", "state": "MT", "lat": -17.005833, "lon": -56.459444}, "SDAA": {"name": "Araras", "city": "ARARAS", "state": "SP", "lat": -22.336944, "lon": -47.358333}, "SNAB": {"name": "Araripina", "city": "ARARIPINA", "state": "PE", "lat": -7.586389, "lon": -40.535278}, "SJYJ": {"name": "Aratha-ú", "city": "ALTO ALEGRE", "state": "RR", "lat": 3.160833, "lon": -63.781389}, "SNAE": {"name": "Arcoverde", "city": "ARCOVERDE", "state": "PE", "lat": -8.407778, "lon": -37.088333}, "SDH8": {"name": "Área de Apoio Administrativo de Fuzileiros Navais em Itaóca", "city": "ITAPEMIRIM", "state": "ES", "lat": -20.963611, "lon": -40.813611}, "SIEW": {"name": "Areia Branca", "city": "NOVO ARIPUANÃ", "state": "AM", "lat": -7.987778, "lon": -61.050278}, "SD9Q": {"name": "ARENA FLY", "city": "UBERLÂNDIA", "state": "MG", "lat": -19.019722, "lon": -48.334167}, "SBOP": {"name": "Arena Corinthians", "city": "SÃO PAULO", "state": "SP", "lat": -23.544167, "lon": -46.477778}, "SJTW": {"name": "Arenhart Aviação Agrícola", "city": "URUGUAIANA", "state": "RS", "lat": -29.889444, "lon": -57.141111}, "SSNB": {"name": "Ariosto da Riva", "city": "NAVIRAÍ", "state": "MS", "lat": -23.034167, "lon": -54.177778}, "SSOU": {"name": "Aripuanã", "city": "ARIPUANÃ", "state": "MT", "lat": -10.185556, "lon": -59.457778}, "SJOG": {"name": "Ariquemes", "city": "ARIQUEMES", "state": "RO", "lat": -9.880556, "lon": -63.047222}, "SJ9W": {"name": "Arjon", "city": "OURO PRETO", "state": "MG", "lat": -20.270556, "lon": -43.720278}, "SDLY": {"name": "Armando Natali", "city": "MATÃO", "state": "SP", "lat": -21.624167, "lon": -48.350833}, "SWOA": {"name": "Arnapar", "city": "GOIANIRA", "state": "GO", "lat": -16.540556, "lon": -49.398333}, "SJK8": {"name": "Arquitech", "city": "BRAÇO DO NORTE", "state": "SC", "lat": -28.266111, "lon": -49.148056}, "SSAE": {"name": "Arroio Grande", "city": "ARROIO GRANDE", "state": "RS", "lat": -32.229167, "lon": -53.055833}, "SWUO": {"name": "Arroz Cristal", "city": "APARECIDA DE GOIÂNIA", "state": "GO", "lat": -16.806553, "lon": -49.244392}, "SI7P": {"name": "Arroz Faccio", "city": "BONFIM", "state": "RR", "lat": 3.259167, "lon": -60.363056}, "SN1K": {"name": "Artivinco Skyport", "city": "ITATIBA", "state": "SP", "lat": -22.982872, "lon": -46.7396}, "SWNH": {"name": "ARUANÃ", "city": "ARUANÃ", "state": "GO", "lat": -14.933056, "lon": -51.048333}, "SNIA": {"name": "Arujá", "city": "ARUJÁ", "state": "SP", "lat": -23.394167, "lon": -46.354444}, "SI6C": {"name": "Arvoredo", "city": "CONTAGEM", "state": "MG", "lat": -19.881667, "lon": -44.03}, "SNI9": {"name": "Asa Alumínio", "city": "CAMPINAS", "state": "SP", "lat": -22.957425, "lon": -47.098181}, "SIGR": {"name": "Asa Branca", "city": "GRAVATÁ", "state": "PE", "lat": -8.190833, "lon": -35.5175}, "SIEZ": {"name": "Asa Branca", "city": "TUBARÃO", "state": "SC", "lat": -28.528056, "lon": -48.949167}, "SJPR": {"name": "Asas de Balsa Nova", "city": "BALSA NOVA", "state": "PR", "lat": -25.549444, "lon": -49.643056}, "SINA": {"name": "Asas do Ar", "city": "BRASÍLIA", "state": "DF", "lat": -15.610278, "lon": -47.573889}, "SIWC": {"name": "Asas do Cerrado", "city": "UBERLÂNDIA", "state": "MG", "lat": -19.033056, "lon": -48.306944}, "SSXA": {"name": "Asas do MS", "city": "FÁTIMA DO SUL", "state": "MS", "lat": -22.338611, "lon": -54.558333}, "SJ9D": {"name": "ASL - Fazenda Matão", "city": "PARANATINGA", "state": "MT", "lat": -13.360556, "lon": -54.428056}, "SI7I": {"name": "ASL - Fazenda Santo Cristo", "city": "NOVA UBIRATÃ", "state": "MT", "lat": -12.614453, "lon": -54.547653}, "SIB4": {"name": "ASL - FAZENDA SÃO FRANCISCO", "city": "PARANATINGA", "state": "MT", "lat": -13.345, "lon": -54.487222}, "SI6K": {"name": "ASL - Fazenda São Luiz", "city": "GAÚCHA DO NORTE", "state": "MT", "lat": -13.166967, "lon": -53.851483}, "SI4A": {"name": "Asor Sul Connect", "city": "CAXIAS DO SUL", "state": "RS", "lat": -29.218889, "lon": -51.171667}, "SN7L": {"name": "Aspen", "city": "SÃO PEDRO DA ALDEIA", "state": "RJ", "lat": -22.836389, "lon": -42.054722}, "SNX3": {"name": "ASPJ Jauá", "city": "CAMAÇARI", "state": "BA", "lat": -12.833461, "lon": -38.233089}, "SJP8": {"name": "Associação Aeroclube de Faxinal", "city": "FAXINAL", "state": "PR", "lat": -23.971389, "lon": -51.328333}, "SS8V": {"name": "Associação Aerodesportiva Colina", "city": "CAMPO MOURÃO", "state": "PR", "lat": -24.029167, "lon": -52.411817}, "SJE6": {"name": "Associação Aerodesportivo de Espigão D'Oeste - AADEO", "city": "ESPIGÃO D'OESTE", "state": "RO", "lat": -11.5475, "lon": -61.023333}, "SNM9": {"name": "Associação Quilombola de Pedras Negras do Guaporé", "city": "SÃO FRANCISCO DO GUAPORÉ", "state": "RO", "lat": -12.849533, "lon": -62.900483}, "SDBN": {"name": "Associação Recreativa Fazenda Bonanza", "city": "SALTO DE PIRAPORA", "state": "SP", "lat": -23.687222, "lon": -47.5575}, "SWEJ": {"name": "Associação Tocantinense de Aviação", "city": "PORTO NACIONAL", "state": "TO", "lat": -10.182778, "lon": -48.545278}, "SWAK": {"name": "Assunção do Içana", "city": "SÃO GABRIEL DA CACHOEIRA", "state": "AM", "lat": 1.066389, "lon": -67.600556}, "SIV4": {"name": "Astolfi Agropecuária", "city": "RIACHÃO DAS NEVES", "state": "BA", "lat": -11.641339, "lon": -45.801692}, "SNS9": {"name": "Atacadão Dia à Dia 1", "city": "PADRE BERNARDO", "state": "GO", "lat": -15.521972, "lon": -48.420603}, "SI7W": {"name": "Atacadão Dia à Dia 2", "city": "PADRE BERNARDO", "state": "GO", "lat": -15.525236, "lon": -48.407094}, "SJQ8": {"name": "Atacadão Dia à Dia 3", "city": "PADRE BERNARDO", "state": "GO", "lat": -15.5275, "lon": -48.405278}, "SDTB": {"name": "ATIBAIA", "city": "ATIBAIA", "state": "SP", "lat": -23.128333, "lon": -46.574722}, "SBBV": {"name": "Atlas Brasil Cantanhede", "city": "BOA VISTA", "state": "RR", "lat": 2.841389, "lon": -60.692222}, "SJBP": {"name": "Atrium VI.com", "city": "SÃO PAULO", "state": "SP", "lat": -23.595556, "lon": -46.6875}, "SDA2": {"name": "Attack", "city": "LAGOA SANTA", "state": "MG", "lat": -19.597222, "lon": -43.881389}, "SDOT": {"name": "Attilio Tinelli", "city": "SÃO PAULO", "state": "SP", "lat": -23.6025, "lon": -46.693611}, "SWBV": {"name": "Auaris", "city": "AMAJARI", "state": "RR", "lat": 4.002778, "lon": -64.495556}, "SS8B": {"name": "Aura Almas", "city": "ALMAS", "state": "TO", "lat": -11.700883, "lon": -47.166697}, "SJZ5": {"name": "Autazes", "city": "AUTAZES", "state": "AM", "lat": -3.598333, "lon": -59.126111}, "SS9U": {"name": "Autódromo Internacional de Goiânia - Centro Médico", "city": "GOIÂNIA", "state": "GO", "lat": -16.718519, "lon": -49.193539}, "SIW5": {"name": "Autódromo Internacional de Goiânia - Visitantes", "city": "GOIÂNIA", "state": "GO", "lat": -16.721997, "lon": -49.187425}, "SSJS": {"name": "Autos do Sangue", "city": "BRASNORTE", "state": "MT", "lat": -11.542917, "lon": -58.224397}, "SIC2": {"name": "Avalon", "city": "PENHA", "state": "SC", "lat": -26.811817, "lon": -48.658611}, "SDRR": {"name": "Avaré-Arandu", "city": "AVARÉ", "state": "SP", "lat": -23.092222, "lon": -48.987222}, "SD7W": {"name": "Avelino Remor", "city": "RIO MARIA", "state": "PA", "lat": -7.301389, "lon": -50.049722}, "SS4B": {"name": "Avenida Consolação 1601", "city": "SÃO PAULO", "state": "SP", "lat": -23.551489, "lon": -46.655689}, "SIMN": {"name": "Aviação Agrícola Manain", "city": "SINOP", "state": "MT", "lat": -11.753889, "lon": -55.358889}, "SDF9": {"name": "Aviação Agrícola Manain", "city": "BOA VISTA", "state": "RR", "lat": 2.998611, "lon": -60.7225}, "SWSL": {"name": "Aviação Estrela Bôscoli", "city": "LUCAS DO RIO VERDE", "state": "MT", "lat": -13.323333, "lon": -56.048889}, "SS6Q": {"name": "Aviação Santa Bárbara", "city": "SANTA BÁRBARA DO SUL", "state": "RS", "lat": -28.340139, "lon": -53.157889}, "SDJI": {"name": "AVIBRÁS II", "city": "JACAREÍ", "state": "SP", "lat": -23.326111, "lon": -45.816667}, "SS1B": {"name": "Sky Haven", "city": "JOAÇABA", "state": "SC", "lat": -27.177669, "lon": -51.521656}, "SJXR": {"name": "B. Cao Viño", "city": "PRAIA GRANDE", "state": "SP", "lat": -24.01, "lon": -46.4175}, "SNBI": {"name": "Bacabal", "city": "BACABAL", "state": "MA", "lat": -4.228056, "lon": -44.819722}, "SBBI": {"name": "Bacacheri", "city": "CURITIBA", "state": "PR", "lat": -25.403333, "lon": -49.233611}, "SD9N": {"name": "Bahia Blue", "city": "PORTO SEGURO", "state": "BA", "lat": -16.499167, "lon": -39.071667}, "SWEB": {"name": "Bahiagliding", "city": "FORMOSA DO RIO PRETO", "state": "BA", "lat": -11.261111, "lon": -45.699167}, "SWYZ": {"name": "Bahiamido", "city": "LAJE", "state": "BA", "lat": -13.108889, "lon": -39.284167}, "SWVS": {"name": "Baía do Padre", "city": "VILA BELA DA SANTÍSSIMA TRINDADE", "state": "MT", "lat": -15.858889, "lon": -60.042222}, "SSEN": {"name": "Bainho de Baixo", "city": "BARÃO DE MELGAÇO", "state": "MT", "lat": -16.734167, "lon": -55.739444}, "SJYK": {"name": "Baixo Catrimani", "city": "CARACARAÍ", "state": "RR", "lat": 1.071111, "lon": -62.218333}, "SNBG": {"name": "Baixo Guandu-Aimorés", "city": "BAIXO GUANDU", "state": "ES", "lat": -19.498889, "lon": -41.041944}, "SJYL": {"name": "Baixo Mucajaí", "city": "ALTO ALEGRE", "state": "RR", "lat": 2.736944, "lon": -62.019444}, "SJYM": {"name": "Bala", "city": "PACARAIMA", "state": "RR", "lat": 3.837222, "lon": -60.603333}, "SNBN": {"name": "Balbinot", "city": "PORTEL", "state": "PA", "lat": -2.875833, "lon": -50.491667}, "SSCR": {"name": "Balduino Helmuth Jope", "city": "MARECHAL CÂNDIDO RONDON", "state": "PR", "lat": -24.512778, "lon": -54.054722}, "SDBV": {"name": "Balneário São Januário", "city": "ILHA COMPRIDA", "state": "SP", "lat": -24.870833, "lon": -47.758333}, "SNBS": {"name": "Balsas", "city": "BALSAS", "state": "MA", "lat": -7.525278, "lon": -46.053333}, "SNTJ": {"name": "Baltt", "city": "BALNEÁRIO CAMBORIÚ", "state": "SC", "lat": -27.01, "lon": -48.624167}, "SJET": {"name": "Baltt", "city": "PENHA", "state": "SC", "lat": -26.793056, "lon": -48.671111}, "SDOS": {"name": "Banaer", "city": "SETE BARRAS", "state": "SP", "lat": -24.419167, "lon": -47.869167}, "SIVW": {"name": "Banaer de Jacupiranga", "city": "JACUPIRANGA", "state": "SP", "lat": -24.71, "lon": -48.023889}, "SJYO": {"name": "Bananal", "city": "UIRAMUTÃ", "state": "RR", "lat": 4.632778, "lon": -60.585556}, "SJYP": {"name": "Bananeira", "city": "UIRAMUTÃ", "state": "RR", "lat": 4.321111, "lon": -60.193889}, "SDMT": {"name": "Banco Bradesco Av. Paulista", "city": "SÃO PAULO", "state": "SP", "lat": -23.562222, "lon": -46.655}, "SIBG": {"name": "Banco Induscred", "city": "SÃO PAULO", "state": "SP", "lat": -23.564444, "lon": -46.655833}, "SDAW": {"name": "Banco Industrial", "city": "SÃO PAULO", "state": "SP", "lat": -23.591944, "lon": -46.685556}, "SNVF": {"name": "Banco Itaú-RJ", "city": "RIO DE JANEIRO", "state": "RJ", "lat": -22.899444, "lon": -43.223611}, "SDSZ": {"name": "Banco Safra", "city": "SÃO PAULO", "state": "SP", "lat": -23.558056, "lon": -46.659722}, "SDNR": {"name": "Banco Santander", "city": "SÃO PAULO", "state": "SP", "lat": -23.652222, "lon": -46.713889}, "SWHH": {"name": "Banco Santander", "city": "SÃO PAULO", "state": "SP", "lat": -23.590833, "lon": -46.690833}, "SSZE": {"name": "Banco Sofisa", "city": "SÃO PAULO", "state": "SP", "lat": -23.562778, "lon": -46.655833}, "SDBH": {"name": "Bandeirantes", "city": "SÃO PAULO", "state": "SP", "lat": -23.595278, "lon": -46.710833}, "SWST": {"name": "Bandeiras Centro Empresarial", "city": "VOTORANTIM", "state": "SP", "lat": -23.536667, "lon": -47.449444}, "SWBC": {"name": "BARCELOS", "city": "BARCELOS", "state": "AM", "lat": -0.981111, "lon": -62.919444}, "SDBY": {"name": "Bariri", "city": "BARIRI", "state": "SP", "lat": -22.069167, "lon": -48.706389}, "SNBX": {"name": "Barra", "city": "BARRA", "state": "BA", "lat": -11.081111, "lon": -43.1475}, "SDN9": {"name": "Barra del Mundo", "city": "CAJUEIRO DA PRAIA", "state": "PI", "lat": -2.913611, "lon": -41.408889}, "SNBC": {"name": "Barra do Corda", "city": "BARRA DO CORDA", "state": "MA", "lat": -5.5025, "lon": -45.216111}, "SBBW": {"name": "Barra do Garças", "city": "BARRA DO GARÇAS", "state": "MT", "lat": -15.861389, "lon": -52.388889}, "SDEK": {"name": "Barra do Una", "city": "SÃO SEBASTIÃO", "state": "SP", "lat": -23.735833, "lon": -45.746944}, "SI8W": {"name": "Barra Grande", "city": "CAJUEIRO DA PRAIA", "state": "PI", "lat": -3.041369, "lon": -41.396292}, "SIRI": {"name": "Barra Grande", "city": "MARAÚ", "state": "BA", "lat": -13.906111, "lon": -38.94}, "SDBG": {"name": "Barra Green", "city": "RIO DE JANEIRO", "state": "RJ", "lat": -23.00665, "lon": -43.347269}, "SD7K": {"name": "Barracuda", "city": "ITACARÉ", "state": "BA", "lat": -14.28, "lon": -38.984722}, "SJ4E": {"name": "Barras", "city": "BARRAS", "state": "PI", "lat": -4.204636, "lon": -42.251319}, "SJ9A": {"name": "Barreirinha", "city": "BARREIRINHA", "state": "AM", "lat": -2.791944, "lon": -57.058056}, "SSRS": {"name": "Barreirinhas", "city": "BARREIRINHAS", "state": "MA", "lat": -2.756667, "lon": -42.803333}, "SIBQ": {"name": "Barroco Lopes", "city": "MACAÉ", "state": "RJ", "lat": -22.322222, "lon": -41.745}, "SBAQ": {"name": "Bartolomeu de Gusmão", "city": "ARARAQUARA", "state": "SP", "lat": -21.811944, "lon": -48.133056}, "SBCP": {"name": "Bartolomeu Lisandro", "city": "CAMPOS DOS GOYTACAZES", "state": "RJ", "lat": -21.701111, "lon": -41.307778}, "SISB": {"name": "Basalto Base 6", "city": "CAMPINAS", "state": "SP", "lat": -23.003889, "lon": -47.088333}, "SWZL": {"name": "Base Aeroverde", "city": "RIO VERDE", "state": "GO", "lat": -17.741667, "lon": -50.968611}, "SD4I": {"name": "Base Armalite", "city": "ITU", "state": "SP", "lat": -23.279167, "lon": -47.336111}, "SBTA": {"name": "Base de Aviação de Taubaté", "city": "TAUBATÉ", "state": "SP", "lat": -23.038889, "lon": -45.515833}, "SDG7": {"name": "Base de Fuzileiros Navais da Ilha do Governador", "city": "RIO DE JANEIRO", "state": "RJ", "lat": -22.783889, "lon": -43.156389}, "SD7T": {"name": "BASE DE OPERAÇÕES AÉREAS DA PRF", "city": "PORTO ALEGRE", "state": "RS", "lat": -29.9725, "lon": -51.176111}, "SS36": {"name": "Base Grifo", "city": "GUAÍRA", "state": "PR", "lat": -24.075519, "lon": -54.253044}, "SDH7": {"name": "Base Naval de Aratu", "city": "CANDEIAS", "state": "BA", "lat": -12.794167, "lon": -38.497778}, "SDG8": {"name": "Base Naval de Natal", "city": "NATAL", "state": "RN", "lat": -5.792333, "lon": -35.224139}, "SDHH": {"name": "Base Resgate", "city": "BRASÍLIA", "state": "DF", "lat": -15.775, "lon": -47.906111}, "SWBM": {"name": "Bauminas", "city": "CATAGUASES", "state": "MG", "lat": -21.375556, "lon": -42.7325}, "SBBU": {"name": "Bauru", "city": "BAURU", "state": "SP", "lat": -22.345, "lon": -49.053889}, "SBAE": {"name": "Bauru - Arealva", "city": "BAURU", "state": "SP", "lat": -22.157778, "lon": -49.068333}, "SN7N": {"name": "Bay Park", "city": "VINHEDO", "state": "SP", "lat": -23.073058, "lon": -47.004472}, "SNXM": {"name": "BBP", "city": "JARINU", "state": "SP", "lat": -23.041111, "lon": -46.708611}, "SJYA": {"name": "BCW", "city": "PENHA", "state": "SC", "lat": -26.799444, "lon": -48.612778}, "SN9C": {"name": "BCW 2", "city": "PENHA", "state": "SC", "lat": -26.80195, "lon": -48.620714}, "SDBB": {"name": "Bebedouro", "city": "BEBEDOURO", "state": "SP", "lat": -20.900278, "lon": -48.473611}, "SNBQ": {"name": "Bela Cintra", "city": "SÃO PAULO", "state": "SP", "lat": -23.553889, "lon": -46.658611}, "SIVP": {"name": "Bela Manhã", "city": "NOVA CRIXÁS", "state": "GO", "lat": -14.440833, "lon": -50.535833}, "SJ3E": {"name": "Bela União Agropecuária", "city": "SÃO GABRIEL", "state": "RS", "lat": -30.155556, "lon": -54.503333}, "SNBV": {"name": "Bela Vista", "city": "SANTA CRUZ DO CAPIBARIBE", "state": "PE", "lat": -7.948333, "lon": -36.219167}, "SSBN": {"name": "Belém Novo", "city": "PORTO ALEGRE", "state": "RS", "lat": -30.189167, "lon": -51.1825}, "SWUB": {"name": "Belo Horizonte", "city": "ARAÇAS", "state": "BA", "lat": -12.163333, "lon": -38.293333}, "SWPX": {"name": "Belterra", "city": "BELTERRA", "state": "PA", "lat": -2.672222, "lon": -54.951667}, "SN38": {"name": "BEMAD Caxiuanã", "city": "MELGAÇO", "state": "PA", "lat": -1.799719, "lon": -51.713747}, "SN9N": {"name": "Bemad Portel", "city": "PORTEL", "state": "PA", "lat": -1.965539, "lon": -50.810506}, "SI6W": {"name": "BEMISA", "city": "ÁGUA AZUL DO NORTE", "state": "PA", "lat": -6.863569, "lon": -50.465642}, "SDBM": {"name": "Beneficência Portuguesa", "city": "SÃO PAULO", "state": "SP", "lat": -23.567778, "lon": -46.641389}, "SD9C": {"name": "Benjamin de Moura Leal", "city": "SÃO JOÃO DO PIAUÍ", "state": "PI", "lat": -8.391228, "lon": -42.247378}, "SDMB": {"name": "Benteler", "city": "CAMPINAS", "state": "SP", "lat": -23.001944, "lon": -47.116944}, "SJZ8": {"name": "Bentevi", "city": "BALSAS", "state": "MA", "lat": -7.601111, "lon": -45.970556}, "SD8O": {"name": "Berço das Gerais", "city": "MATIAS CARDOSO", "state": "MG", "lat": -14.770833, "lon": -43.608889}, "SJBW": {"name": "Berge Vile", "city": "SÃO LEOPOLDO", "state": "RS", "lat": -29.733056, "lon": -51.209722}, "SITO": {"name": "Berrini One", "city": "SÃO PAULO", "state": "SP", "lat": -23.598333, "lon": -46.690556}, "SDGS": {"name": "Bertolucci", "city": "SÃO PAULO", "state": "SP", "lat": -23.585856, "lon": -46.6804}, "SNSB": {"name": "Betel", "city": "RIO DE JANEIRO", "state": "RJ", "lat": -22.915, "lon": -43.668889}, "SD2O": {"name": "Bethaville Empresarial Itu", "city": "ITU", "state": "SP", "lat": -23.315833, "lon": -47.323056}, "SIBD": {"name": "Beverly Hills", "city": "PETRÓPOLIS", "state": "RJ", "lat": -22.358611, "lon": -43.098889}, "SILS": {"name": "Big Master", "city": "TANGARÁ DA SERRA", "state": "MT", "lat": -14.636667, "lon": -57.608056}, "SNBH": {"name": "Biocor", "city": "NOVA LIMA", "state": "MG", "lat": -19.981389, "lon": -43.944444}, "SDBE": {"name": "Biopalma", "city": "MOJU", "state": "PA", "lat": -2.207778, "lon": -48.813889}, "SIIX": {"name": "Bira Guimarães", "city": "IGARATÁ", "state": "SP", "lat": -23.195278, "lon": -46.094722}, "SDNN": {"name": "Birmann 21", "city": "SÃO PAULO", "state": "SP", "lat": -23.565278, "lon": -46.702222}, "SDDH": {"name": "Birmann 29", "city": "SÃO PAULO", "state": "SP", "lat": -23.588611, "lon": -46.681111}, "SJBG": {"name": "Birmann 31", "city": "SÃO PAULO", "state": "SP", "lat": -23.59, "lon": -46.681944}, "SN66": {"name": "Birmann 32", "city": "SÃO PAULO", "state": "SP", "lat": -23.589167, "lon": -46.6825}, "SSIL": {"name": "Blau Farmacêutica", "city": "COTIA", "state": "SP", "lat": -23.598056, "lon": -46.897778}, "SDX8": {"name": "Blue", "city": "TIMBÓ", "state": "SC", "lat": -26.849722, "lon": -49.256667}, "SSOA": {"name": "Blue Tree Tower Faria Lima", "city": "SÃO PAULO", "state": "SP", "lat": -23.591111, "lon": -46.680833}, "SJD6": {"name": "Blumen Park", "city": "LAJEADO", "state": "RS", "lat": -29.433889, "lon": -52.0175}, "SSBL": {"name": "Blumenau", "city": "BLUMENAU", "state": "SC", "lat": -26.831667, "lon": -49.093611}, "SNBB": {"name": "BMR Medical", "city": "CAMPINA GRANDE DO SUL", "state": "PR", "lat": -25.346944, "lon": -49.057222}, "SNDE": {"name": "BNDES", "city": "RIO DE JANEIRO", "state": "RJ", "lat": -22.908611, "lon": -43.18}, "SWEX": {"name": "Boa Esperança", "city": "SANTA LUZIA", "state": "MA", "lat": -3.911944, "lon": -45.783056}, "SNGL": {"name": "Boa Vista", "city": "PORTO FELIZ", "state": "SP", "lat": -23.33245, "lon": -47.560117}, "SJ9O": {"name": "Boa Vista", "city": "CONCEIÇÃO DO MATO DENTRO", "state": "MG", "lat": -19.053825, "lon": -43.421217}, "SDBJ": {"name": "Boa Vista", "city": "PATROCÍNIO", "state": "MG", "lat": -18.757222, "lon": -46.97}, "SI3I": {"name": "Boa Vista Estates", "city": "PORTO FELIZ", "state": "SP", "lat": -23.325964, "lon": -47.559822}, "SIG5": {"name": "Boi na Grota", "city": "NOVO REPARTIMENTO", "state": "PA", "lat": -4.263508, "lon": -49.942622}, "SSYJ": {"name": "BOISA", "city": "MARANGUAPE", "state": "CE", "lat": -3.968056, "lon": -38.889722}, "SI3S": {"name": "Bold", "city": "JARAGUÁ DO SUL", "state": "SC", "lat": -26.441111, "lon": -49.059167}, "SIJP": {"name": "Bolsa-RJ", "city": "RIO DE JANEIRO", "state": "RJ", "lat": -22.902222, "lon": -43.174167}, "SNGQ": {"name": "Bom Despacho", "city": "BOM DESPACHO", "state": "MG", "lat": -19.688056, "lon": -45.269722}, "SIAQ": {"name": "Bom Futuro", "city": "CUIABÁ", "state": "MT", "lat": -15.506389, "lon": -56.098333}, "SNGG": {"name": "BOM JESUS DO GURGUÉIA", "city": "BOM JESUS", "state": "PI", "lat": -9.059444, "lon": -44.369167}, "SNWB": {"name": "Bom Sossego", "city": "PORTO SEGURO", "state": "BA", "lat": -16.381111, "lon": -39.081111}, "SD14": {"name": "Bom Sucesso", "city": "VAZANTE", "state": "MG", "lat": -17.608533, "lon": -46.699367}, "SD40": {"name": "Bon Voyage", "city": "POMERODE", "state": "SC", "lat": -26.760833, "lon": -49.173889}, "SWQA": {"name": "Bonini", "city": "CAMPOS DO JORDÃO", "state": "SP", "lat": -22.732222, "lon": -45.559722}, "SBDB": {"name": "BONITO", "city": "BONITO", "state": "MS", "lat": -21.247222, "lon": -56.4525}, "SWBR": {"name": "BORBA", "city": "BORBA", "state": "AM", "lat": -4.406111, "lon": -59.6025}, "SSHB": {"name": "Boris", "city": "LUÍS EDUARDO MAGALHÃES", "state": "BA", "lat": -12.068333, "lon": -45.828611}, "SNBO": {"name": "Botelho Belchior", "city": "ARATUBA", "state": "CE", "lat": -4.378611, "lon": -39.034167}, "SJ9B": {"name": "Botuvera", "city": "GAÚCHA DO NORTE", "state": "MT", "lat": -13.583611, "lon": -53.981667}, "SJI7": {"name": "BPX", "city": "BOQUEIRÃO", "state": "PB", "lat": -7.478386, "lon": -36.147147}, "SI53": {"name": "BPX 2", "city": "CAMPINA GRANDE", "state": "PB", "lat": -7.202064, "lon": -35.875175}, "SDH9": {"name": "BR Marinas Paraty", "city": "PARATY", "state": "RJ", "lat": -23.234167, "lon": -44.706389}, "SS2B": {"name": "Braço do Norte", "city": "NOVO MUNDO", "state": "MT", "lat": -9.521186, "lon": -55.040419}, "SDHB": {"name": "Bradesco", "city": "OSASCO", "state": "SP", "lat": -23.548333, "lon": -46.768889}, "SDBC": {"name": "Bradesco Alphaville", "city": "BARUERI", "state": "SP", "lat": -23.4875, "lon": -46.8575}, "SDGZ": {"name": "Bradesco Cidade de Deus", "city": "OSASCO", "state": "SP", "lat": -23.549444, "lon": -46.772222}, "SWAB": {"name": "Bradesco Previdência", "city": "BARUERI", "state": "SP", "lat": -23.486667, "lon": -46.856667}, "SIIR": {"name": "Brascan Century Plaza", "city": "SÃO PAULO", "state": "SP", "lat": -23.584167, "lon": -46.675556}, "SIDH": {"name": "Brascan Century Plaza Green Valley Commercial", "city": "BARUERI", "state": "SP", "lat": -23.485556, "lon": -46.864167}, "SN3L": {"name": "Brasil Agro", "city": "SÃO RAIMUNDO DAS MANGABEIRAS", "state": "MA", "lat": -6.786111, "lon": -45.735}, "SSPT": {"name": "Brasílio Marques", "city": "PALOTINA", "state": "PR", "lat": -24.343333, "lon": -53.828611}, "SDNB": {"name": "Brasnorte", "city": "BRASNORTE", "state": "MT", "lat": -12.099444, "lon": -58.001667}, "SDGO": {"name": "Braspress", "city": "GUARULHOS", "state": "SP", "lat": -23.454167, "lon": -46.485556}, "SI3H": {"name": "Brava Beach Internacional", "city": "ITAJAÍ", "state": "SC", "lat": -26.951944, "lon": -48.633056}, "SNPB": {"name": "Bravíssima Private Residence", "city": "ITAJAÍ", "state": "SC", "lat": -26.934167, "lon": -48.633056}, "SS9C": {"name": "Brejo Do Caipira", "city": "GUATAPARÁ", "state": "SP", "lat": -21.5508, "lon": -47.977294}, "SNVS": {"name": "Breves", "city": "BREVES", "state": "PA", "lat": -1.636389, "lon": -50.443333}, "SDNM": {"name": "Brig. Eduardo Gomes", "city": "NOVA MUTUM", "state": "MT", "lat": -13.821111, "lon": -56.038611}, "SBCI": {"name": "Brig. Lysias Augusto Rodrigues", "city": "CAROLINA", "state": "MA", "lat": -7.320556, "lon": -47.458611}, "SNDV": {"name": "Brigadeiro Antônio Cabral", "city": "DIVINÓPOLIS", "state": "MG", "lat": -20.181944, "lon": -44.87}, "SWUZ": {"name": "BRIGADEIRO ARARIPE MACEDO", "city": "LUZIÂNIA", "state": "GO", "lat": -16.261667, "lon": -47.968611}, "SJIL": {"name": "Brigadeiro Fábio Pereira da Silveira", "city": "TUPACIGUARA", "state": "MG", "lat": -18.610175, "lon": -48.719469}, "SDCU": {"name": "Brigadeiro Francisco Pinto de Moura", "city": "CASIMIRO DE ABREU", "state": "RJ", "lat": -22.557222, "lon": -42.115278}, "SBPJ": {"name": "Brigadeiro Lysias Rodrigues", "city": "PALMAS", "state": "TO", "lat": -10.29, "lon": -48.357778}, "SSKS": {"name": "Brigadeiro Nero Moura", "city": "CACHOEIRA DO SUL", "state": "RS", "lat": -30.002222, "lon": -52.940278}, "SNXA": {"name": "Brigadeiro Sampaio", "city": "TAMBORIL", "state": "CE", "lat": -4.857778, "lon": -40.375278}, "SJF3": {"name": "Brink´s Salvador", "city": "SALVADOR", "state": "BA", "lat": -12.907222, "lon": -38.445556}, "SS3E": {"name": "BRISANET", "city": "PEREIRO", "state": "CE", "lat": -6.184992, "lon": -38.517411}, "SNKO": {"name": "Brotas de Macaúbas", "city": "BROTAS DE MACAÚBAS", "state": "BA", "lat": -11.999167, "lon": -42.635556}, "SILU": {"name": "BRPEC Agro-Pecuária", "city": "MIRANDA", "state": "MS", "lat": -19.865833, "lon": -56.988056}, "SWWK": {"name": "Bruno Forcela", "city": "ITAPECERICA", "state": "MG", "lat": -20.466667, "lon": -45.126944}, "SJJS": {"name": "BS Colway", "city": "PIRAQUARA", "state": "PR", "lat": -25.461389, "lon": -49.102778}, "SSQN": {"name": "BS Design", "city": "FORTALEZA", "state": "CE", "lat": -3.7375, "lon": -38.499444}, "SWYT": {"name": "BS Design II", "city": "FORTALEZA", "state": "CE", "lat": -3.737222, "lon": -38.499444}, "SWTW": {"name": "BS Tower", "city": "FORTALEZA", "state": "CE", "lat": -3.731111, "lon": -38.515833}, "SS6M": {"name": "BSM", "city": "MORRO DA GARÇA", "state": "MG", "lat": -18.528303, "lon": -44.619664}, "SN3I": {"name": "BSP", "city": "LENÇÓIS PAULISTA", "state": "SP", "lat": -22.546083, "lon": -48.81455}, "SJVB": {"name": "Bugio", "city": "PEDRINHAS PAULISTA", "state": "SP", "lat": -22.848611, "lon": -50.731667}, "SNTQ": {"name": "Buritirama", "city": "BURITIRAMA", "state": "BA", "lat": -10.721667, "lon": -43.653611}, "SJZT": {"name": "Busato II", "city": "SERRA DO RAMALHO", "state": "BA", "lat": -13.238611, "lon": -43.736111}, "SDYY": {"name": "Business Center Renascença", "city": "SÃO LUÍS", "state": "MA", "lat": -2.498611, "lon": -44.284722}, "SSYT": {"name": "Business Style", "city": "GOIÂNIA", "state": "GO", "lat": -16.697322, "lon": -49.255606}, "SN2P": {"name": "Bussolaro Aviação Agrícola", "city": "FELIZ NATAL", "state": "MT", "lat": -12.280556, "lon": -54.657222}, "SIC3": {"name": "C&A - Fazenda Chapadão do Verde", "city": "SORRISO", "state": "MT", "lat": -12.598703, "lon": -55.885036}, "SNDK": {"name": "C.T.O. Itaú", "city": "SÃO PAULO", "state": "SP", "lat": -23.557778, "lon": -46.615556}, "SNNX": {"name": "Cabanha Umbú", "city": "BARRA DO QUARAÍ", "state": "RS", "lat": -29.980556, "lon": -57.271111}, "SNJW": {"name": "Cabletech", "city": "CAÇAPAVA", "state": "SP", "lat": -23.177778, "lon": -45.726111}, "SBCB": {"name": "Cabo Frio", "city": "CABO FRIO", "state": "RJ", "lat": -22.920833, "lon": -42.071389}, "SWUS": {"name": "Cacau Show", "city": "ITAPEVI", "state": "SP", "lat": -23.518333, "lon": -46.965556}, "SWKC": {"name": "Cáceres", "city": "CÁCERES", "state": "MT", "lat": -16.0425, "lon": -57.63}, "SNDX": {"name": "Cachoeira", "city": "CORURIPE", "state": "AL", "lat": -10.040556, "lon": -36.325833}, "SSKW": {"name": "Cacoal", "city": "CACOAL", "state": "RO", "lat": -11.495556, "lon": -61.450833}, "SIQL": {"name": "Cacoal Tradição", "city": "CACOAL", "state": "RO", "lat": -11.441667, "lon": -61.480833}, "SJEA": {"name": "Cadete 56 - 147 Santana", "city": "PALMEIRÓPOLIS", "state": "TO", "lat": -12.85, "lon": -48.225278}, "SDFG": {"name": "CADF", "city": "BRASÍLIA", "state": "DF", "lat": -15.836111, "lon": -48.083889}, "SNIE": {"name": "Caetité", "city": "CAETITÉ", "state": "BA", "lat": -14.012222, "lon": -42.493889}, "SS3D": {"name": "Cafe Buriti", "city": "PASSAGEM FRANCA", "state": "MA", "lat": -5.998742, "lon": -43.71555}, "SWIS": {"name": "Caiapó", "city": "CASEARA", "state": "TO", "lat": -9.186389, "lon": -49.775278}, "SJ9Q": {"name": "Caio - Induscar Indústria e Comércio de Carrocerias Ltda", "city": "GUARULHOS", "state": "SP", "lat": -23.450278, "lon": -46.459167}, "SS4U": {"name": "Cajamar", "city": "BARRA DO CORDA", "state": "MA", "lat": -5.639897, "lon": -45.229269}, "SJYR": {"name": "Cajú", "city": "UIRAMUTÃ", "state": "RR", "lat": 4.705833, "lon": -60.515278}, "SID2": {"name": "Caju", "city": "TIMBÓ", "state": "SC", "lat": -26.838989, "lon": -49.228267}, "SJ3H": {"name": "Calçados Beira Rio", "city": "NOVO HAMBURGO", "state": "RS", "lat": -29.661667, "lon": -51.098056}, "SIZO": {"name": "Calcário Vale do Araguaia", "city": "COCALINHO", "state": "MT", "lat": -14.190278, "lon": -51.643889}, "SIKK": {"name": "Calciolândia", "city": "ARCOS", "state": "MG", "lat": -20.250556, "lon": -45.645}, "SN2I": {"name": "Caledonia", "city": "CAMBORIÚ", "state": "SC", "lat": -27.041389, "lon": -48.671667}, "SJYS": {"name": "Camará", "city": "NORMANDIA", "state": "RR", "lat": 3.990833, "lon": -60.181667}, "SJ2H": {"name": "Cambaí", "city": "SÃO NICOLAU", "state": "RS", "lat": -28.310556, "lon": -55.120278}, "SJLR": {"name": "Cambiju", "city": "PONTA GROSSA", "state": "PR", "lat": -25.246944, "lon": -49.918056}, "SDJ6": {"name": "Cambury", "city": "SÃO SEBASTIÃO", "state": "SP", "lat": -23.768889, "lon": -45.636389}, "SD2Y": {"name": "Caminho do Lobo", "city": "COMODORO", "state": "MT", "lat": -13.708056, "lon": -59.772778}, "SSRK": {"name": "Campo Alegre de Lourdes", "city": "CAMPO ALEGRE DE LOURDES", "state": "BA", "lat": -9.513611, "lon": -42.995833}, "SBNT": {"name": "CAMPO AUGUSTO SEVERO", "city": "NATAL", "state": "RN", "lat": -5.908333, "lon": -35.249167}, "SD3X": {"name": "Campo Bahia Resort", "city": "SANTA CRUZ CABRÁLIA", "state": "BA", "lat": -16.241667, "lon": -39.009167}, "SNCA": {"name": "Campo Belo", "city": "CAMPO BELO", "state": "MG", "lat": -20.8925, "lon": -45.335556}, "SIJY": {"name": "Campo Comandantes", "city": "ITAJAÍ", "state": "SC", "lat": -26.983056, "lon": -48.816389}, "SNCY": {"name": "Campo da Praia", "city": "CORURIPE", "state": "AL", "lat": -10.222778, "lon": -36.285278}, "SD58": {"name": "Campo de Bagatelle", "city": "SETE LAGOAS", "state": "MG", "lat": -19.373892, "lon": -44.178094}, "SBMT": {"name": "CAMPO DE MARTE", "city": "SÃO PAULO", "state": "SP", "lat": -23.509167, "lon": -46.6375}, "SBAF": {"name": "Campo Délio Jardim de Mattos", "city": "RIO DE JANEIRO", "state": "RJ", "lat": -22.875556, "lon": -43.384444}, "SBGW": {"name": "Campo Edu Chaves", "city": "GUARATINGUETÁ", "state": "SP", "lat": -22.791667, "lon": -45.204444}, "SBYS": {"name": "CAMPO FONTENELLE", "city": "PIRASSUNUNGA", "state": "SP", "lat": -21.984444, "lon": -47.344167}, "SD27": {"name": "Campo Formoso", "city": "CAMPO FORMOSO", "state": "BA", "lat": -10.494589, "lon": -40.487464}, "SJYT": {"name": "Campo Formoso", "city": "PACARAIMA", "state": "RR", "lat": 4.72, "lon": -60.769722}, "SJYU": {"name": "Campo Grande", "city": "PACARAIMA", "state": "RR", "lat": 4.685556, "lon": -60.800278}, "SBCG": {"name": "Campo Grande", "city": "CAMPO GRANDE", "state": "MS", "lat": -20.469444, "lon": -54.670278}, "SJ1L": {"name": "Campo Limpo", "city": "CANÁPOLIS", "state": "MG", "lat": -18.889856, "lon": -49.286603}, "SBAN": {"name": "Campo Marechal Márcio de Souza e Mello", "city": "ANÁPOLIS", "state": "GO", "lat": -16.238611, "lon": -48.972222}, "SSKM": {"name": "Campo Mourão", "city": "CAMPO MOURÃO", "state": "PR", "lat": -24.0025, "lon": -52.356944}, "SBSC": {"name": "CAMPO NERO MOURA", "city": "RIO DE JANEIRO", "state": "RJ", "lat": -22.932778, "lon": -43.719444}, "SBCO": {"name": "CAMPO NOSSA SENHORA DE FÁTIMA", "city": "CANOAS", "state": "RS", "lat": -29.945556, "lon": -51.143611}, "SINC": {"name": "Campo Nuic", "city": "BOM JARDIM DA SERRA", "state": "SC", "lat": -28.381667, "lon": -49.569167}, "SBMN": {"name": "Campo Ponta Pelada", "city": "MANAUS", "state": "AM", "lat": -3.145833, "lon": -59.985}, "SINP": {"name": "Campo Primavera", "city": "SANTA MÔNICA", "state": "PR", "lat": -23.121389, "lon": -53.078333}, "SDLZ": {"name": "Campo Verde", "city": "CAMPO VERDE", "state": "MT", "lat": -15.528611, "lon": -55.141389}, "SWCB": {"name": "Campos Belos", "city": "CAMPOS BELOS", "state": "GO", "lat": -13.006944, "lon": -46.710833}, "SDAM": {"name": "Campos dos Amarais - Prefeito Francisco Amaral", "city": "CAMPINAS", "state": "SP", "lat": -22.859167, "lon": -47.108056}, "SNCS": {"name": "Campos Sales", "city": "CAMPOS SALES", "state": "CE", "lat": -7.051667, "lon": -40.358333}, "SJKL": {"name": "Canã", "city": "NORMANDIA", "state": "RR", "lat": 4.618889, "lon": -60.071667}, "SD7E": {"name": "Canaã Executivo", "city": "TERESINA", "state": "PI", "lat": -4.959436, "lon": -42.793042}, "SJHC": {"name": "Canal", "city": "CABO FRIO", "state": "RJ", "lat": -22.871944, "lon": -42.011389}, "SD8X": {"name": "Canal SS", "city": "ITARUMÃ", "state": "GO", "lat": -19.069444, "lon": -50.994722}, "SNNJ": {"name": "Cananéia", "city": "CANANÉIA", "state": "SP", "lat": -25.007778, "lon": -47.925}, "SI55": {"name": "Canápolis Açúcar e Etanol S.A.", "city": "CANÁPOLIS", "state": "MG", "lat": -18.778153, "lon": -49.230181}, "SWEK": {"name": "CANARANA", "city": "CANARANA", "state": "MT", "lat": -13.5775, "lon": -52.268056}, "SJKM": {"name": "Canawapai", "city": "UIRAMUTÃ", "state": "RR", "lat": 4.808056, "lon": -60.022222}, "SDDO": {"name": "Cândido Mendes", "city": "RIO DE JANEIRO", "state": "RJ", "lat": -22.904167, "lon": -43.175278}, "SWCC": {"name": "Candote", "city": "TRÊS LAGOAS", "state": "MS", "lat": -20.838797, "lon": -52.301686}, "SI2A": {"name": "Canduá II", "city": "UNAÍ", "state": "MG", "lat": -15.842778, "lon": -46.51}, "SSCN": {"name": "Canela", "city": "CANELA", "state": "RS", "lat": -29.370556, "lon": -50.832222}, "SNQG": {"name": "Cangapara", "city": "FLORIANO", "state": "PI", "lat": -6.846111, "lon": -43.078056}, "SDEI": {"name": "Canopus Corporate Alphaville", "city": "BARUERI", "state": "SP", "lat": -23.503889, "lon": -46.844722}, "SIPC": {"name": "Canto da Praia", "city": "ITAPEMA", "state": "SC", "lat": -27.093611, "lon": -48.604722}, "SDX4": {"name": "Canto do Buriti", "city": "CANTO DO BURITI", "state": "PI", "lat": -8.126283, "lon": -42.990181}, "SD7I": {"name": "Canto Grande", "city": "BOMBINHAS", "state": "SC", "lat": -27.187222, "lon": -48.507222}, "SNKU": {"name": "Canudos", "city": "CANUDOS", "state": "BA", "lat": -9.903056, "lon": -39.032778}, "SD54": {"name": "Capanema", "city": "CORRENTE", "state": "PI", "lat": -10.621778, "lon": -45.386297}, "SDCA": {"name": "Capão Bonito", "city": "CAPÃO BONITO", "state": "SP", "lat": -24.033611, "lon": -48.356944}, "SSKK": {"name": "Capão da Canoa", "city": "CAPÃO DA CANOA", "state": "RS", "lat": -29.763611, "lon": -50.036944}, "SIMJ": {"name": "Capinópolis - Aviação Agrícola Buttarello LTDA", "city": "CAPINÓPOLIS", "state": "MG", "lat": -18.659444, "lon": -49.5475}, "SSAP": {"name": "Capitão João Busse", "city": "APUCARANA", "state": "PR", "lat": -23.612222, "lon": -51.385}, "SJCI": {"name": "Capitão PM Paulo José de Menezes Filho", "city": "SÃO JOSÉ DOS CAMPOS", "state": "SP", "lat": -23.194444, "lon": -45.874167}, "SNJA": {"name": "Capivari", "city": "CAPIVARI DO SUL", "state": "RS", "lat": -30.134444, "lon": -50.509722}, "SD9A": {"name": "Caputi", "city": "VILHENA", "state": "RO", "lat": -12.719167, "lon": -60.2025}, "SJKN": {"name": "Caracanã", "city": "UIRAMUTÃ", "state": "RR", "lat": 4.704722, "lon": -60.265278}, "SBQI": {"name": "CARACARAI", "city": "CARACARAÍ", "state": "RR", "lat": 1.844167, "lon": -61.121389}, "SDKL": {"name": "Caracaranã", "city": "NORMANDIA", "state": "RR", "lat": 3.836667, "lon": -59.777222}, "SWHC": {"name": "Caracol", "city": "CANELA", "state": "RS", "lat": -29.317222, "lon": -50.851944}, "SJSP": {"name": "Caragoatá", "city": "PARATY", "state": "RJ", "lat": -23.243611, "lon": -44.596111}, "SNAK": {"name": "Carajás", "city": "PARAUAPEBAS", "state": "PA", "lat": -6.0775, "lon": -50.074167}, "SBCJ": {"name": "Carajás", "city": "PARAUAPEBAS", "state": "PA", "lat": -6.117778, "lon": -50.003333}, "SWKN": {"name": "Caramori", "city": "BARRA DO BUGRES", "state": "MT", "lat": -14.867222, "lon": -58.506667}, "SJKP": {"name": "Caraparu", "city": "UIRAMUTÃ", "state": "RR", "lat": 4.541111, "lon": -60.463056}, "SDKZ": {"name": "Caraparu 4", "city": "UIRAMUTÃ", "state": "RR", "lat": 4.558056, "lon": -60.47}, "SS82": {"name": "Carará", "city": "ALMEIRIM", "state": "PA", "lat": -0.075186, "lon": -53.11985}, "SJKO": {"name": "Cararuau", "city": "NORMANDIA", "state": "RR", "lat": 4.063056, "lon": -60.165}, "SNCT": {"name": "Caratinga", "city": "UBAPORANGA", "state": "MG", "lat": -19.725278, "lon": -42.112222}, "SWCA": {"name": "Carauari", "city": "CARAUARI", "state": "AM", "lat": -4.871389, "lon": -66.8975}, "SSKZ": {"name": "Carazinho", "city": "CARAZINHO", "state": "RS", "lat": -28.321667, "lon": -52.816667}, "SSDE": {"name": "Cardio Pulmonar", "city": "SALVADOR", "state": "BA", "lat": -13.006111, "lon": -38.500278}, "SJXQ": {"name": "Cargo Park", "city": "RIO DE JANEIRO", "state": "RJ", "lat": -22.815278, "lon": -43.283611}, "SDWY": {"name": "Caridade", "city": "SANTA MARIA", "state": "RS", "lat": -29.691667, "lon": -53.805833}, "SDQ1": {"name": "Carlos da Silveira Bueno", "city": "GUARAÍ", "state": "TO", "lat": -8.871967, "lon": -48.501753}, "SJRN": {"name": "Carlos Gomes Center", "city": "PORTO ALEGRE", "state": "RS", "lat": -30.031389, "lon": -51.176667}, "SSAK": {"name": "CARLOS RUHL", "city": "CRUZ ALTA", "state": "RS", "lat": -28.658611, "lon": -53.611389}, "SIIF": {"name": "Carmel Hoteis", "city": "SÃO GONÇALO DO AMARANTE", "state": "CE", "lat": -3.506111, "lon": -38.903889}, "SDYA": {"name": "Carmo Couri", "city": "SÃO PAULO", "state": "SP", "lat": -23.596111, "lon": -46.687222}, "SD43": {"name": "Carneirinho Agroindustrial S.A", "city": "CARNEIRINHO", "state": "MG", "lat": -19.81, "lon": -50.781667}, "SJ27": {"name": "Carolina", "city": "ITAITUBA", "state": "PA", "lat": -5.403056, "lon": -57.168056}, "SJXM": {"name": "Carolina de Assis Repetto", "city": "LIMA DUARTE", "state": "MG", "lat": -21.730278, "lon": -43.892222}, "SDSW": {"name": "Carta Fabril 01", "city": "PIRAÍ", "state": "RJ", "lat": -22.582222, "lon": -43.9925}, "SNRU": {"name": "Caruaru", "city": "CARUARU", "state": "PE", "lat": -8.284444, "lon": -36.010833}, "SD5M": {"name": "Casa Bahls", "city": "ITABORAÍ", "state": "RJ", "lat": -22.723506, "lon": -42.850706}, "SDU7": {"name": "Casa das Onças", "city": "BARÃO DE MELGAÇO", "state": "MT", "lat": -17.1525, "lon": -56.57}, "SDK5": {"name": "Casa do Governador SC", "city": "FLORIANÓPOLIS", "state": "SC", "lat": -27.574106, "lon": -48.532539}, "SDFX": {"name": "Casa Nova", "city": "CASA NOVA", "state": "BA", "lat": -9.1575, "lon": -40.9375}, "SNB9": {"name": "Casana Hotel", "city": "CRUZ", "state": "CE", "lat": -2.816425, "lon": -40.397344}, "SDOK": {"name": "Casas Bahia", "city": "JUNDIAÍ", "state": "SP", "lat": -23.236111, "lon": -46.865833}, "SDGE": {"name": "Casas Bahia", "city": "SÃO CAETANO DO SUL", "state": "SP", "lat": -23.611111, "lon": -46.570833}, "SSCL": {"name": "Cassilândia", "city": "CASSILÂNDIA", "state": "MS", "lat": -19.146944, "lon": -51.676389}, "SNCB": {"name": "Castanhal", "city": "PRAINHA", "state": "PA", "lat": -2.523611, "lon": -53.939722}, "SWBB": {"name": "Castelli Fazenda Sobradinho", "city": "CORRENTINA", "state": "BA", "lat": -13.620278, "lon": -46.097222}, "SJCO": {"name": "Castello 54", "city": "ARAÇARIGUAMA", "state": "SP", "lat": -23.430833, "lon": -47.111667}, "SWKM": {"name": "Castelo Branco Office Park - Torre II", "city": "BARUERI", "state": "SP", "lat": -23.505278, "lon": -46.8375}, "SJ73": {"name": "Castelo do Piauí", "city": "CASTELO DO PIAUÍ", "state": "PI", "lat": -5.305014, "lon": -41.547422}, "SSQT": {"name": "Castro", "city": "CASTRO", "state": "PR", "lat": -24.8075, "lon": -49.960278}, "SIYA": {"name": "CAT - Clube Aéreo Taquari", "city": "VILHENA", "state": "RO", "lat": -12.791667, "lon": -60.171667}, "SWKT": {"name": "Catalão", "city": "CATALÃO", "state": "GO", "lat": -18.216944, "lon": -47.899444}, "SDCD": {"name": "Catanduva", "city": "CATANDUVA", "state": "SP", "lat": -21.148611, "lon": -48.988056}, "SBFI": {"name": "Cataratas", "city": "FOZ DO IGUAÇU", "state": "PR", "lat": -25.600278, "lon": -54.485}, "SDGL": {"name": "Catedral Mundial da Fé", "city": "RIO DE JANEIRO", "state": "RJ", "lat": -22.880833, "lon": -43.274722}, "SJKS": {"name": "Catrimani I", "city": "IRACEMA", "state": "RR", "lat": 2.375556, "lon": -63.008333}, "SNCD": {"name": "Catuama", "city": "GOIANA", "state": "PE", "lat": -7.663333, "lon": -34.838056}, "SDOM": {"name": "Catuama II", "city": "GOIANA", "state": "PE", "lat": -7.665556, "lon": -34.83}, "SJCM": {"name": "Catuleve", "city": "AQUIRAZ", "state": "CE", "lat": -3.939478, "lon": -38.379056}, "SJYV": {"name": "Cauê-Apiaí", "city": "APIAÍ", "state": "SP", "lat": -24.517222, "lon": -48.850278}, "SIOH": {"name": "Cauê-Ijaci", "city": "IJACI", "state": "MG", "lat": -21.194444, "lon": -44.941111}, "SDLO": {"name": "Cav. Lav. Fábio Perini", "city": "CAIRU", "state": "BA", "lat": -13.564444, "lon": -38.938889}, "SIPB": {"name": "CAVU - Clube de Aviação Desportiva", "city": "RAPOSA", "state": "MA", "lat": -2.448056, "lon": -44.119722}, "SNXB": {"name": "Caxambu", "city": "CAXAMBU", "state": "MG", "lat": -21.9175, "lon": -44.969444}, "SN83": {"name": "Caxiuanã 3", "city": "PORTEL", "state": "PA", "lat": -2.166389, "lon": -51.723889}, "SI2L": {"name": "CBF", "city": "TERESÓPOLIS", "state": "RJ", "lat": -22.449722, "lon": -42.977222}, "SS2K": {"name": "CBMRS", "city": "PORTO ALEGRE", "state": "RS", "lat": -30.041753, "lon": -51.203303}, "SN9V": {"name": "CCI Frutal", "city": "FRUTAL", "state": "MG", "lat": -20.033611, "lon": -48.883656}, "SWIR": {"name": "CCN - Torre Norte", "city": "RIO DE JANEIRO", "state": "RJ", "lat": -22.911389, "lon": -43.208333}, "SIET": {"name": "CD 19", "city": "GUARUJÁ", "state": "SP", "lat": -23.955278, "lon": -46.189722}, "SIGK": {"name": "CD Guarulhos", "city": "GUARULHOS", "state": "SP", "lat": -23.446667, "lon": -46.444444}, "SNU9": {"name": "CD Supermercados BH", "city": "CONTAGEM", "state": "MG", "lat": -19.853517, "lon": -44.057428}, "SWPW": {"name": "CEA-Caçapava", "city": "CAÇAPAVA", "state": "SP", "lat": -23.126667, "lon": -45.662778}, "SSKP": {"name": "CEAL", "city": "PALOTINA", "state": "PR", "lat": -24.308889, "lon": -53.842222}, "SNOG": {"name": "Ceará Mirim", "city": "CEARÁ-MIRIM", "state": "RN", "lat": -5.661389, "lon": -35.413611}, "SJ67": {"name": "Cedro Agropec", "city": "FRANCISCO DUMONT", "state": "MG", "lat": -17.579722, "lon": -44.195278}, "SIJ9": {"name": "CEL Energia", "city": "GOIÂNIA", "state": "GO", "lat": -16.577636, "lon": -49.157778}, "SIHC": {"name": "Cel PM Cícero Dantas dos Santos", "city": "VITÓRIA", "state": "ES", "lat": -20.293611, "lon": -40.3125}, "SDXI": {"name": "Cel Porto", "city": "CAMAPUÃ", "state": "MS", "lat": -19.139167, "lon": -53.703889}, "SIIC": {"name": "Celeiro 1", "city": "JABORANDI", "state": "BA", "lat": -14.369722, "lon": -45.541111}, "SDCX": {"name": "Celeiro 2", "city": "GILBUÉS", "state": "PI", "lat": -9.398611, "lon": -45.135278}, "SSUC": {"name": "Célia Neuza", "city": "SANTA BÁRBARA DO PARÁ", "state": "PA", "lat": -1.169167, "lon": -48.210556}, "SNDN": {"name": "Cemaden - CIGE", "city": "SALVADOR", "state": "BA", "lat": -12.943889, "lon": -38.425556}, "SSAU": {"name": "Centeno", "city": "TAPES", "state": "RS", "lat": -30.745278, "lon": -51.431667}, "SICE": {"name": "Central Engenharia", "city": "SÃO LUÍS", "state": "MA", "lat": -2.535278, "lon": -44.299722}, "SNSK": {"name": "Central Ferraz", "city": "HERCULÂNDIA", "state": "SP", "lat": -21.868889, "lon": -50.308889}, "SWKZ": {"name": "Central Park Business", "city": "FORTALEZA", "state": "CE", "lat": -3.747222, "lon": -38.49}, "SWDA": {"name": "Centro Administrativo da Bahia - CAB", "city": "SALVADOR", "state": "BA", "lat": -12.9475, "lon": -38.431944}, "SJZY": {"name": "Centro Administrativo Rio Negro", "city": "BARUERI", "state": "SP", "lat": -23.500494, "lon": -46.848656}, "SSZU": {"name": "Centro de Convenções de João Pessoa", "city": "JOÃO PESSOA", "state": "PB", "lat": -7.189722, "lon": -34.803056}, "SBQL": {"name": "Centro de Convenções Ponta da Praia", "city": "SANTOS", "state": "SP", "lat": -23.984722, "lon": -46.294444}, "SNCW": {"name": "Centro de Lançamento de Alcântara", "city": "ALCÂNTARA", "state": "MA", "lat": -2.371667, "lon": -44.390833}, "SDJK": {"name": "Centro Empresarial Araguaia", "city": "BARUERI", "state": "SP", "lat": -23.501944, "lon": -46.841944}, "SDFQ": {"name": "Centro Empresarial Botafogo", "city": "RIO DE JANEIRO", "state": "RJ", "lat": -22.944444, "lon": -43.1825}, "SSQY": {"name": "Centro Empresarial de São Paulo", "city": "SÃO PAULO", "state": "SP", "lat": -23.650992, "lon": -46.727833}, "SDUI": {"name": "Centro Empresarial Iudice", "city": "SÃO PAULO", "state": "SP", "lat": -23.513611, "lon": -46.694722}, "SNSQ": {"name": "Centro Empresarial Nações Unidas-Torre Norte", "city": "SÃO PAULO", "state": "SP", "lat": -23.610278, "lon": -46.696389}, "SIYQ": {"name": "Centro Empresarial Senado", "city": "RIO DE JANEIRO", "state": "RJ", "lat": -22.910589, "lon": -43.186189}, "SN6N": {"name": "Centro Integrado de Ensino e Pesquisa Francisco Mangabeira - CIEPS", "city": "RIO BRANCO", "state": "AC", "lat": -9.9725, "lon": -67.857778}, "SDCN": {"name": "Centro Médico Naval Marcílio Dias", "city": "RIO DE JANEIRO", "state": "RJ", "lat": -22.913333, "lon": -43.283333}, "SDOI": {"name": "Centro Nacional de Pára-Quedismo", "city": "BOITUVA", "state": "SP", "lat": -23.298056, "lon": -47.691944}, "SNP9": {"name": "Centro Náutico Pontal", "city": "ANGRA DOS REIS", "state": "RJ", "lat": -22.943825, "lon": -44.327281}, "SDG6": {"name": "Centro Tecnológico da Marinha em São Paulo - ARAMAR", "city": "SOROCABA", "state": "SP", "lat": -23.3975, "lon": -47.605278}, "SNQQ": {"name": "Centroar", "city": "FLORES DE GOIÁS", "state": "GO", "lat": -14.496667, "lon": -47.036111}, "SNUK": {"name": "Centúria Montana", "city": "FORMOSA DO RIO PRETO", "state": "BA", "lat": -11.288333, "lon": -46.060833}, "SWIO": {"name": "CEO", "city": "RIO DE JANEIRO", "state": "RJ", "lat": -22.985, "lon": -43.358889}, "SJOC": {"name": "CEO", "city": "SALVADOR", "state": "BA", "lat": -12.979444, "lon": -38.452222}, "SDW6": {"name": "Ceolin Grãos e Fibra", "city": "SÃO DESIDÉRIO", "state": "BA", "lat": -13.248889, "lon": -45.855}, "SWCZ": {"name": "CERES", "city": "CERES", "state": "GO", "lat": -15.343889, "lon": -49.604444}, "SNX7": {"name": "Cerrado Aero Agrícola", "city": "SÍTIO D'ABADIA", "state": "GO", "lat": -14.730194, "lon": -46.444781}, "SWUF": {"name": "Cervejaria Petrópolis", "city": "BOITUVA", "state": "SP", "lat": -23.258056, "lon": -47.660556}, "SDDY": {"name": "Cesari", "city": "CUBATÃO", "state": "SP", "lat": -23.823611, "lon": -46.367778}, "SIYC": {"name": "Cesaroni", "city": "LAURO DE FREITAS", "state": "BA", "lat": -12.859167, "lon": -38.317222}, "SW2A": {"name": "Cesconetto", "city": "EUNÁPOLIS", "state": "BA", "lat": -16.293611, "lon": -39.559444}, "SDHT": {"name": "Cetenco Plaza - Torre Norte", "city": "SÃO PAULO", "state": "SP", "lat": -23.558889, "lon": -46.6575}, "SNG9": {"name": "CETRIC", "city": "CHAPECÓ", "state": "SC", "lat": -27.164667, "lon": -52.579528}, "SWJG": {"name": "CGO", "city": "PILAR DE GOIÁS", "state": "GO", "lat": -14.777222, "lon": -49.576111}, "SJX8": {"name": "Chácara Araguaia", "city": "XINGUARA", "state": "PA", "lat": -6.882222, "lon": -49.157222}, "SI9G": {"name": "CHÁCARA ITAPOTY", "city": "AMAMBAI", "state": "MS", "lat": -23.076944, "lon": -55.229722}, "SJSM": {"name": "Chácara Marcella", "city": "GOIOERÊ", "state": "PR", "lat": -24.209722, "lon": -53.009444}, "SDWV": {"name": "Chácara Maringá", "city": "SENADOR JOSÉ PORFÍRIO", "state": "PA", "lat": -2.572778, "lon": -51.953611}, "SWLY": {"name": "Chácara MCL", "city": "ANDRADINA", "state": "SP", "lat": -20.881111, "lon": -51.356389}, "SJ26": {"name": "Chácara Messias", "city": "SANTA ISABEL", "state": "SP", "lat": -23.278611, "lon": -46.253611}, "SNYP": {"name": "Chácara Paraíso", "city": "BENEVIDES", "state": "PA", "lat": -1.317778, "lon": -48.298889}, "SWRD": {"name": "Chácara Rondoagro", "city": "SÃO MIGUEL DO GUAPORÉ", "state": "RO", "lat": -11.732197, "lon": -62.709092}, "SWXJ": {"name": "Chácara São José", "city": "CUIABÁ", "state": "MT", "lat": -15.595833, "lon": -56.004167}, "SWMT": {"name": "Chácara São Matheus", "city": "JAPURÁ", "state": "PR", "lat": -23.485, "lon": -52.5725}, "SNBA": {"name": "Chafei Amsei", "city": "BARRETOS", "state": "SP", "lat": -20.585556, "lon": -48.595833}, "SJNX": {"name": "Chapadão do Céu", "city": "CHAPADÃO DO CÉU", "state": "GO", "lat": -18.404439, "lon": -52.626983}, "SSCD": {"name": "Chapadão do Sul", "city": "CHAPADÃO DO SUL", "state": "MS", "lat": -18.839167, "lon": -52.488056}, "SIVT": {"name": "Chaperó", "city": "ITAGUAÍ", "state": "RJ", "lat": -22.8425, "lon": -43.763889}, "SNE6": {"name": "Chateau Julie 1", "city": "CAMOCIM", "state": "CE", "lat": -2.901514, "lon": -40.656169}, "SSXL": {"name": "Chendel", "city": "ATIBAIA", "state": "SP", "lat": -23.165278, "lon": -46.575}, "SIQN": {"name": "Chica Doce", "city": "PINDORETAMA", "state": "CE", "lat": -4.043889, "lon": -38.327778}, "SSHD": {"name": "Chico Ledur", "city": "ALEGRETE", "state": "RS", "lat": -29.818056, "lon": -55.714167}, "SDKN": {"name": "Chopper Solution", "city": "EUSÉBIO", "state": "CE", "lat": -3.845, "lon": -38.4425}, "SDQQ": {"name": "Cia. Agrícola Quatá", "city": "QUATÁ", "state": "SP", "lat": -22.285556, "lon": -50.639444}, "SIVX": {"name": "Cia. Brasileira de Alumínio", "city": "ALUMÍNIO", "state": "SP", "lat": -23.516667, "lon": -47.266667}, "SIKI": {"name": "Cialne Irauçuba", "city": "IRAUÇUBA", "state": "CE", "lat": -3.754444, "lon": -39.951667}, "SNJC": {"name": "Cialne Umirim", "city": "UMIRIM", "state": "CE", "lat": -3.694722, "lon": -39.408611}, "SNCI": {"name": "Cibrasa", "city": "CAPANEMA", "state": "PA", "lat": -1.230556, "lon": -47.200556}, "SN73": {"name": "Cical Taxi Aéreo e Agro Pecuária", "city": "BOA VISTA", "state": "RR", "lat": 3.043056, "lon": -60.947778}, "SNYC": {"name": "CICC", "city": "RIO DE JANEIRO", "state": "RJ", "lat": -22.908889, "lon": -43.198889}, "SIC1": {"name": "CICERI", "city": "MARINGÁ", "state": "PR", "lat": -23.368867, "lon": -52.008572}, "SIES": {"name": "Ciclade", "city": "SÃO SEBASTIÃO", "state": "SP", "lat": -23.768889, "lon": -45.633889}, "SDIA": {"name": "Cidade", "city": "SÃO PAULO", "state": "SP", "lat": -23.545833, "lon": -46.6325}, "SIDU": {"name": "Cidade da Polícia", "city": "RIO DE JANEIRO", "state": "RJ", "lat": -22.88, "lon": -43.255}, "SD09": {"name": "Cidade de Goiás", "city": "GOIÁS", "state": "GO", "lat": -15.920161, "lon": -50.193025}, "SDPJ": {"name": "Cidade Empresarial", "city": "APARECIDA DE GOIÂNIA", "state": "GO", "lat": -16.75, "lon": -49.304722}, "SSZI": {"name": "Cidadelle", "city": "ITABUNA", "state": "BA", "lat": -14.786667, "lon": -39.245556}, "SISF": {"name": "Cifarma", "city": "GOIÂNIA", "state": "GO", "lat": -16.631111, "lon": -49.200833}, "SNXY": {"name": "Cikel Brasil Verde", "city": "PORTEL", "state": "PA", "lat": -2.700278, "lon": -50.528611}, "SS72": {"name": "Cimatec Park", "city": "CAMAÇARI", "state": "BA", "lat": -12.708414, "lon": -38.176489}, "SJS8": {"name": "CIMED", "city": "POUSO ALEGRE", "state": "MG", "lat": -22.222011, "lon": -45.877994}, "SJUT": {"name": "Cimento Rio Branco", "city": "RIO BRANCO DO SUL", "state": "PR", "lat": -25.195556, "lon": -49.319167}, "SNIO": {"name": "Cipó", "city": "CIPÓ", "state": "BA", "lat": -11.125278, "lon": -38.486944}, "SIC9": {"name": "Cipriani", "city": "BLUMENAU", "state": "SC", "lat": -26.914831, "lon": -49.094431}, "SNAR": {"name": "Cirilo Queiróz", "city": "ALMENARA", "state": "MG", "lat": -16.165833, "lon": -40.684167}, "SIVJ": {"name": "Cirrus Sociedade Aerodesportiva", "city": "JABOTICATUBAS", "state": "MG", "lat": -19.452778, "lon": -43.899722}, "SS4Q": {"name": "CISS", "city": "DOIS VIZINHOS", "state": "PR", "lat": -25.742139, "lon": -53.050417}, "SDCV": {"name": "Citibank", "city": "SÃO PAULO", "state": "SP", "lat": -23.565, "lon": -46.653611}, "SJAC": {"name": "Citropar", "city": "CAPITÃO POÇO", "state": "PA", "lat": -1.840556, "lon": -47.184444}, "SDZ1": {"name": "Citropar", "city": "CAPITÃO POÇO", "state": "PA", "lat": -1.805278, "lon": -47.200081}, "SDKB": {"name": "CJB CURITIBA", "city": "CURITIBA", "state": "PR", "lat": -25.438056, "lon": -49.240556}, "SJEH": {"name": "Clemente Verillo", "city": "RIBEIRÃO BONITO", "state": "SP", "lat": -22.101306, "lon": -48.226656}, "SIBL": {"name": "Clínica Porto Dias", "city": "BELÉM", "state": "PA", "lat": -1.4375, "lon": -48.458333}, "SWKX": {"name": "Clip-Pb", "city": "CONDE", "state": "PB", "lat": -7.271667, "lon": -34.933889}, "SN6T": {"name": "Club de Voo Dorigueto", "city": "ITAMARAJU", "state": "BA", "lat": -17.039444, "lon": -39.600278}, "SWYV": {"name": "Clube Aerodesportivo de Ibirá", "city": "IBIRÁ", "state": "SP", "lat": -21.091389, "lon": -49.224167}, "SIVG": {"name": "Clube Aerodesportivo Selva", "city": "SINOP", "state": "MT", "lat": -11.875833, "lon": -55.444167}, "SDF7": {"name": "Clube Aeronáutico Avaré", "city": "AVARÉ", "state": "SP", "lat": -23.241111, "lon": -48.985}, "SIAN": {"name": "Clube CÉU", "city": "RIO DE JANEIRO", "state": "RJ", "lat": -22.961389, "lon": -43.659444}, "SWON": {"name": "Clube de Aviação Céu Azul", "city": "ARAQUARI", "state": "SC", "lat": -26.561389, "lon": -48.696111}, "SJXA": {"name": "Clube de Aviação de Itaúna", "city": "ITAÚNA", "state": "MG", "lat": -20.074444, "lon": -44.654167}, "SWES": {"name": "Clube de Aviação Experimental do Paraná", "city": "IBIPORÃ", "state": "PR", "lat": -23.287222, "lon": -51.090556}, "SWEQ": {"name": "Clube de Esportes Aéreos e Náuticos do Pará", "city": "BELÉM", "state": "PA", "lat": -1.267222, "lon": -48.43}, "SJPU": {"name": "Clube de Ultraleves do Piauí", "city": "TERESINA", "state": "PI", "lat": -5.031389, "lon": -42.718611}, "SIVQ": {"name": "Clube de Voo Aeroquadra", "city": "QUADRA", "state": "SP", "lat": -23.31465, "lon": -48.029867}, "SID8": {"name": "Clube de Voo de Ângulo", "city": "ÂNGULO", "state": "PR", "lat": -23.153056, "lon": -51.867778}, "SWVN": {"name": "Clube de Voo Fazenda Novo Horizonte", "city": "ITU", "state": "SP", "lat": -23.173056, "lon": -47.411944}, "SJL9": {"name": "Clube de Vôo Fazenda Royal", "city": "ITAPETININGA", "state": "SP", "lat": -23.503056, "lon": -48.000556}, "SNIF": {"name": "Clube de Voo Floresta", "city": "VISCONDE DO RIO BRANCO", "state": "MG", "lat": -20.988056, "lon": -42.887778}, "SNWE": {"name": "Clube Estância Ouro Verde", "city": "SANTA RITA", "state": "PB", "lat": -7.046389, "lon": -34.912778}, "SDVO": {"name": "Clube Voart", "city": "ARAGUAÍNA", "state": "TO", "lat": -7.286944, "lon": -48.134444}, "SWCV": {"name": "CMA", "city": "BARRETOS", "state": "SP", "lat": -20.569722, "lon": -48.693333}, "SDU2": {"name": "CMPC HF Fazenda da Bota", "city": "ENCRUZILHADA DO SUL", "state": "RS", "lat": -30.466944, "lon": -52.469444}, "SDT9": {"name": "CMPC HF Santa Margarida", "city": "SANTA MARGARIDA DO SUL", "state": "RS", "lat": -30.350278, "lon": -54.083056}, "SDR7": {"name": "CMPC HF São Manoel", "city": "PINHEIRO MACHADO", "state": "RS", "lat": -31.556944, "lon": -53.428889}, "SSCO": {"name": "Cmt. Marilda Zaiden de Mesquita", "city": "CAPÃO DO LEÃO", "state": "RS", "lat": -31.774167, "lon": -52.451389}, "SBQH": {"name": "CMTE Juliano Rambo", "city": "CONFRESA", "state": "MT", "lat": -10.698889, "lon": -51.615556}, "SWKO": {"name": "COARI", "city": "COARI", "state": "AM", "lat": -4.134167, "lon": -63.1325}, "SWKE": {"name": "Cobrape", "city": "FORMOSO DO ARAGUAIA", "state": "TO", "lat": -11.485, "lon": -49.954444}, "SNKC": {"name": "Cocos", "city": "COCOS", "state": "BA", "lat": -14.172778, "lon": -44.546667}, "SJ4O": {"name": "Cofer Atacadista", "city": "CARMO DO CAJURU", "state": "MG", "lat": -20.152886, "lon": -44.759456}, "SNCX": {"name": "Colatina", "city": "COLATINA", "state": "ES", "lat": -19.4875, "lon": -40.579444}, "SWCD": {"name": "Colider", "city": "COLÍDER", "state": "MT", "lat": -10.761111, "lon": -55.462222}, "SI51": {"name": "Colina 29", "city": "RIBEIRÃO PRETO", "state": "SP", "lat": -21.224903, "lon": -47.792656}, "SNQY": {"name": "Colina Verde", "city": "RIBEIRÃO PRETO", "state": "SP", "lat": -21.229444, "lon": -47.795556}, "SJSW": {"name": "Colinas Shopping", "city": "SÃO JOSÉ DOS CAMPOS", "state": "SP", "lat": -23.205278, "lon": -45.908056}, "SIXZ": {"name": "COLNIZA", "city": "COLNIZA", "state": "MT", "lat": -9.446389, "lon": -59.199167}, "SJT3": {"name": "Colombo", "city": "MARABÁ", "state": "PA", "lat": -5.377222, "lon": -49.224444}, "SBPG": {"name": "Comandante Antônio Amilton Beraldo", "city": "PONTA GROSSA", "state": "PR", "lat": -25.184444, "lon": -50.143889}, "SBJE": {"name": "Comandante Ariston Pessoa", "city": "CRUZ", "state": "CE", "lat": -2.906667, "lon": -40.358056}, "SNN2": {"name": "Comandante Dantas", "city": "ARUJÁ", "state": "SP", "lat": -23.409108, "lon": -46.330761}, "SNHA": {"name": "Comandante Endeel Gabriel", "city": "SÃO LUÍS", "state": "MA", "lat": -2.485, "lon": -44.251111}, "SDVI": {"name": "Comandante Gastão", "city": "TANGARÁ DA SERRA", "state": "MT", "lat": -14.645556, "lon": -57.502778}, "SBQQ": {"name": "Comandante Gravatá", "city": "ANGRA DOS REIS", "state": "RJ", "lat": -23.018611, "lon": -44.319444}, "SBBG": {"name": "Comandante Gustavo Kraemer", "city": "BAGÉ", "state": "RS", "lat": -31.390833, "lon": -54.109722}, "SSML": {"name": "Comandante Jorge Mello", "city": "BOM JESUS DA LAPA", "state": "BA", "lat": -13.196667, "lon": -43.635556}, "SIUW": {"name": "Comandante Milton Tosto", "city": "BONITO", "state": "BA", "lat": -12.005556, "lon": -41.304444}, "SINN": {"name": "Comandante Nelinho", "city": "ARARANGUÁ", "state": "SC", "lat": -28.975278, "lon": -49.489444}, "SNFE": {"name": "Comandante Paschoal Patrocínio Filho", "city": "ALFENAS", "state": "MG", "lat": -21.431389, "lon": -45.932222}, "SBJD": {"name": "Comandante Rolim Adolfo Amaro", "city": "JUNDIAÍ", "state": "SP", "lat": -23.181667, "lon": -46.943611}, "SJCA": {"name": "Comandante Vittório Bonomi", "city": "MOCOCA", "state": "SP", "lat": -21.531667, "lon": -47.046944}, "SDC1": {"name": "Comandante Wilson do Egito Coelho", "city": "BURITI DOS MONTES", "state": "PI", "lat": -5.020642, "lon": -41.237036}, "SI8S": {"name": "Comando G8", "city": "SÃO PAULO", "state": "SP", "lat": -23.472778, "lon": -46.639722}, "SJCL": {"name": "Comando Piloto", "city": "SÃO JOSÉ DO RIO PARDO", "state": "SP", "lat": -21.616389, "lon": -46.875278}, "SWCY": {"name": "Comary", "city": "TERESÓPOLIS", "state": "RJ", "lat": -22.451667, "lon": -42.98}, "SIYB": {"name": "Comercial Aquidabã", "city": "CAMPINAS", "state": "SP", "lat": -22.911058, "lon": -47.055103}, "SI4W": {"name": "Comercial Scardua", "city": "SERRA", "state": "ES", "lat": -20.204167, "lon": -40.271667}, "SJKY": {"name": "Comeri Santos", "city": "SANTOS", "state": "SP", "lat": -23.9525, "lon": -46.325278}, "SJWC": {"name": "Cometa Vila Maria", "city": "SÃO PAULO", "state": "SP", "lat": -23.517228, "lon": -46.579214}, "SI74": {"name": "Company", "city": "SÃO PAULO", "state": "SP", "lat": -23.572778, "lon": -46.703333}, "SJ8I": {"name": "Complexo das Águias", "city": "UBAJARA", "state": "CE", "lat": -3.818567, "lon": -40.946481}, "SD1T": {"name": "Complexo de Energias Boaventura", "city": "ITABORAÍ", "state": "RJ", "lat": -22.648639, "lon": -42.863694}, "SDHD": {"name": "Complexo Hospitalar de Niterói", "city": "NITERÓI", "state": "RJ", "lat": -22.894444, "lon": -43.115833}, "SDD7": {"name": "COMUNIDADE SÃO LEOPOLDO DO TAPAJÓS", "city": "ITAITUBA", "state": "PA", "lat": -4.975833, "lon": -56.922778}, "SBAA": {"name": "Conceição do Araguaia", "city": "CONCEIÇÃO DO ARAGUAIA", "state": "PA", "lat": -8.348611, "lon": -49.303056}, "SDNZ": {"name": "Concórdia Corporate", "city": "NOVA LIMA", "state": "MG", "lat": -19.983889, "lon": -43.945833}, "SIQW": {"name": "Concrelagos", "city": "ITAPERUNA", "state": "RJ", "lat": -21.192778, "lon": -41.903611}, "SDGV": {"name": "Conde", "city": "NOVA LIMA", "state": "MG", "lat": -19.994722, "lon": -43.952222}, "SDVU": {"name": "Conde Francisco Matarazzo", "city": "SÃO PAULO", "state": "SP", "lat": -23.563333, "lon": -46.652778}, "SWDS": {"name": "Condomínio Aéreo Santos Dumont", "city": "JI- PARANÁ", "state": "RO", "lat": -10.953889, "lon": -61.993333}, "SJ8N": {"name": "Condomínio Aeronáutico Aeroagro", "city": "SORRISO", "state": "MT", "lat": -12.593611, "lon": -55.696944}, "SI8T": {"name": "Condomínio Aeronáutico Fênix", "city": "PANAMBI", "state": "RS", "lat": -28.243611, "lon": -53.5225}, "SDC4": {"name": "CONDOMÍNIO AERONÁUTICO HANGAR FLY RESIDENCE", "city": "PETROLINA", "state": "PE", "lat": -9.325236, "lon": -40.472778}, "SJ2N": {"name": "Condomínio Aeronáutico JW", "city": "SANTA RITA", "state": "PB", "lat": -7.236667, "lon": -34.968611}, "SJ3M": {"name": "CONDOMÍNIO AERONÁUTICO MONTE CRISTO", "city": "BOA VISTA", "state": "RR", "lat": 2.936944, "lon": -60.725}, "SNDD": {"name": "Condomínio Aeronáutico Santos Dumont", "city": "ELIAS FAUSTO", "state": "SP", "lat": -23.065556, "lon": -47.324722}, "SDKD": {"name": "Condomínio América Business Park", "city": "SÃO PAULO", "state": "SP", "lat": -23.618611, "lon": -46.703056}, "SJRI": {"name": "Condomínio Boa Esperança", "city": "RIBEIRO GONÇALVES", "state": "PI", "lat": -8.405003, "lon": -45.458789}, "SIIY": {"name": "Condomínio Brasil 21", "city": "BRASÍLIA", "state": "DF", "lat": -15.792778, "lon": -47.893889}, "SSQQ": {"name": "Condomínio CLC", "city": "CAMPO GRANDE", "state": "MS", "lat": -20.340278, "lon": -54.590278}, "SDNP": {"name": "Condomínio Conde Matarazzo", "city": "SÃO PAULO", "state": "SP", "lat": -23.547778, "lon": -46.637778}, "SWIT": {"name": "Condomínio de Voo Itaipu - CVI", "city": "SANTA TEREZINHA DE ITAIPU", "state": "PR", "lat": -25.484444, "lon": -54.441389}, "SIYZ": {"name": "Condomínio Edifício Berrini 1681", "city": "SÃO PAULO", "state": "SP", "lat": -23.611389, "lon": -46.694444}, "SIGO": {"name": "Condomínio Edifício Paulista Plaza", "city": "SÃO PAULO", "state": "SP", "lat": -23.573611, "lon": -46.641944}, "SDFW": {"name": "Condomínio Edifício San Paolo", "city": "SÃO PAULO", "state": "SP", "lat": -23.575, "lon": -46.687778}, "SDEL": {"name": "Condomínio Edifício Spazio JK", "city": "SÃO PAULO", "state": "SP", "lat": -23.591111, "lon": -46.685556}, "SIRZ": {"name": "Condomínio Faria Lima - Pinheiros", "city": "SÃO PAULO", "state": "SP", "lat": -23.569444, "lon": -46.691111}, "SSIZ": {"name": "Condomínio Fazenda da Grama", "city": "ITUPEVA", "state": "SP", "lat": -23.059272, "lon": -47.062389}, "SSVG": {"name": "Condomínio Fly Vila Resort", "city": "GUAPÉ", "state": "MG", "lat": -20.761111, "lon": -45.986111}, "SJE9": {"name": "Condomínio Global Tech", "city": "CAMPINAS", "state": "SP", "lat": -22.811111, "lon": -47.048889}, "SDAL": {"name": "Condomínio Guaporé II", "city": "RIBEIRÃO PRETO", "state": "SP", "lat": -21.226667, "lon": -47.782222}, "SSBI": {"name": "Condomínio Irmãos Gatto", "city": "BARREIRAS", "state": "BA", "lat": -11.853056, "lon": -46.303056}, "SJFE": {"name": "Condomínio Jacumã Ocean Resort", "city": "PORTO SEGURO", "state": "BA", "lat": -16.705556, "lon": -39.109167}, "SN28": {"name": "Condomínio JG", "city": "CONTAGEM", "state": "MG", "lat": -19.854167, "lon": -44.040278}, "SNLX": {"name": "Condomínio Laguna", "city": "MARECHAL DEODORO", "state": "AL", "lat": -9.703056, "lon": -35.800833}, "SDLA": {"name": "Condomínio Laranjeiras", "city": "PARATY", "state": "RJ", "lat": -23.343333, "lon": -44.663056}, "SNLL": {"name": "Condomínio Liberty", "city": "GOIANÁPOLIS", "state": "GO", "lat": -16.449731, "lon": -49.011931}, "SIFQ": {"name": "Condomínio Menega", "city": "FLORES DA CUNHA", "state": "RS", "lat": -29.044722, "lon": -51.143333}, "SWLD": {"name": "Condomínio Milla", "city": "BAIXA GRANDE DO RIBEIRO", "state": "PI", "lat": -8.252778, "lon": -45.247222}, "SJ1N": {"name": "Condomínio Nirvana Village", "city": "BURITI ALEGRE", "state": "GO", "lat": -18.249353, "lon": -48.8622}, "SJV7": {"name": "Condomínio Pôr do Sol", "city": "CLÁUDIA", "state": "MT", "lat": -11.400833, "lon": -55.386111}, "SN17": {"name": "Condomínio Reserva 1727", "city": "PIRENÓPOLIS", "state": "GO", "lat": -15.873678, "lon": -49.002906}, "SNZ8": {"name": "Condomínio Residencial Bosque de Itapeba", "city": "MARICÁ", "state": "RJ", "lat": -22.929164, "lon": -42.859922}, "SIRU": {"name": "Condomínio Trio Ribeirão", "city": "RIBEIRÃO PRETO", "state": "SP", "lat": -21.199722, "lon": -47.8075}, "SD82": {"name": "Condomínio Village da Serra", "city": "GUARAMIRANGA", "state": "CE", "lat": -4.260833, "lon": -38.940556}, "SI4Q": {"name": "Cone Sul Aviação Agrícola", "city": "CHUPINGUAIA", "state": "RO", "lat": -12.545833, "lon": -60.871667}, "SJHG": {"name": "Confresa", "city": "CONFRESA", "state": "MT", "lat": -10.633128, "lon": -51.566217}, "SBSP": {"name": "Congonhas - Deputado Freitas Nobre", "city": "SÃO PAULO", "state": "SP", "lat": -23.626111, "lon": -46.656389}, "SWHX": {"name": "Conjunto Hospitalar do Mandaqui", "city": "SÃO PAULO", "state": "SP", "lat": -23.485, "lon": -46.630556}, "SNKP": {"name": "Conquista do Pontal", "city": "MIRANTE DO PARANAPANEMA", "state": "SP", "lat": -22.383889, "lon": -52.108056}, "SWHV": {"name": "Construtora G e F", "city": "FORTALEZA", "state": "CE", "lat": -3.821111, "lon": -38.533889}, "SJKT": {"name": "Contão", "city": "PACARAIMA", "state": "RR", "lat": 4.171667, "lon": -60.543611}, "SS3P": {"name": "Continental", "city": "JUÍNA", "state": "MT", "lat": -10.885067, "lon": -59.030497}, "SSCS": {"name": "Continental Square", "city": "SÃO PAULO", "state": "SP", "lat": -23.595781, "lon": -46.684003}, "SDMN": {"name": "Continental Tower", "city": "SÃO PAULO", "state": "SP", "lat": -23.601667, "lon": -46.699167}, "SJCE": {"name": "Convem", "city": "MAGÉ", "state": "RJ", "lat": -22.660278, "lon": -43.158333}, "SWQJ": {"name": "COOMEJ", "city": "LARANJAL DO JARI", "state": "AP", "lat": -0.101944, "lon": -52.95}, "SSWB": {"name": "COOPADF", "city": "BRASÍLIA", "state": "DF", "lat": -16.014444, "lon": -47.558056}, "SSLC": {"name": "Cooperativa Lar", "city": "MEDIANEIRA", "state": "PR", "lat": -25.274167, "lon": -54.0675}, "SN92": {"name": "Coopersantafé", "city": "COCOS", "state": "BA", "lat": -14.664017, "lon": -45.376125},